{
    "action": "request.city.Query",
    "cities": [{
        "allCinemaCnt": 15,
        "cityHot": 13,
        "cityId": 209,
        "cityName": "兰州",
        "cityPinYin": "lanzhou",
        "couponCinemaCnt": 0,
        "latitude": "36.061256",
        "longitude": "103.83437",
        "otherCinemaCnt": 0,
        "ticketCinemaCnt": 15
    }, {
        "allCinemaCnt": 40,
        "cityHot": 12,
        "cityId": 66,
        "cityName": "天津",
        "cityPinYin": "tianjin",
        "couponCinemaCnt": 0,
        "latitude": "39.08416",
        "longitude": "117.20098",
        "otherCinemaCnt": 0,
        "ticketCinemaCnt": 40
    }, {
        "allCinemaCnt": 44,
        "cityHot": 11,
        "cityId": 97,
        "cityName": "武汉",
        "cityPinYin": "wuhan",
        "couponCinemaCnt": 0,
        "latitude": "30.593086",
        "longitude": "114.30536",
        "otherCinemaCnt": 0,
        "ticketCinemaCnt": 44
    }, {
        "allCinemaCnt": 41,
        "cityHot": 10,
        "cityId": 88,
        "cityName": "西安",
        "cityPinYin": "xian",
        "couponCinemaCnt": 0,
        "latitude": "34.264988",
        "longitude": "108.94427",
        "otherCinemaCnt": 0,
        "ticketCinemaCnt": 41
    }, {
        "allCinemaCnt": 20,
        "cityHot": 9,
        "cityId": 504,
        "cityName": "沈阳",
        "cityPinYin": "shenyang",
        "couponCinemaCnt": 0,
        "latitude": "41.80572",
        "longitude": "123.43147",
        "otherCinemaCnt": 0,
        "ticketCinemaCnt": 20
    }, {
        "allCinemaCnt": 103,
        "cityHot": 8,
        "cityId": 63,
        "cityName": "重庆",
        "cityPinYin": "chongqing",
        "couponCinemaCnt": 0,
        "latitude": "29.56301",
        "longitude": "106.55156",
        "otherCinemaCnt": 0,
        "ticketCinemaCnt": 103
    }, {
        "allCinemaCnt": 52,
        "cityHot": 7,
        "cityId": 95,
        "cityName": "成都",
        "cityPinYin": "chengdu",
        "couponCinemaCnt": 0,
        "latitude": "30.658602",
        "longitude": "104.06486",
        "otherCinemaCnt": 0,
        "ticketCinemaCnt": 52
    }, {
        "allCinemaCnt": 66,
        "cityHot": 6,
        "cityId": 119,
        "cityName": "杭州",
        "cityPinYin": "hangzhou",
        "couponCinemaCnt": 0,
        "latitude": "30.27409",
        "longitude": "120.15507",
        "otherCinemaCnt": 0,
        "ticketCinemaCnt": 67
    }, {
        "allCinemaCnt": 42,
        "cityHot": 5,
        "cityId": 91,
        "cityName": "南京",
        "cityPinYin": "nanjing",
        "couponCinemaCnt": 0,
        "latitude": "32.060253",
        "longitude": "118.796875",
        "otherCinemaCnt": 0,
        "ticketCinemaCnt": 42
    }, {
        "allCinemaCnt": 133,
        "cityHot": 4,
        "cityId": 76,
        "cityName": "深圳",
        "cityPinYin": "shenzhen",
        "couponCinemaCnt": 0,
        "latitude": "22.543098",
        "longitude": "114.05787",
        "otherCinemaCnt": 0,
        "ticketCinemaCnt": 133
    }, {
        "allCinemaCnt": 79,
        "cityHot": 3,
        "cityId": 77,
        "cityName": "广州",
        "cityPinYin": "guangzhou",
        "couponCinemaCnt": 0,
        "latitude": "23.129164",
        "longitude": "113.264435",
        "otherCinemaCnt": 0,
        "ticketCinemaCnt": 79
    }, {
        "allCinemaCnt": 139,
        "cityHot": 2,
        "cityId": 53,
        "cityName": "上海",
        "cityPinYin": "shanghai",
        "couponCinemaCnt": 0,
        "latitude": "31.230392",
        "longitude": "121.4737",
        "otherCinemaCnt": 0,
        "ticketCinemaCnt": 140
    }, {
        "allCinemaCnt": 131,
        "cityHot": 1,
        "cityId": 36,
        "cityName": "北京",
        "cityPinYin": "beijing",
        "couponCinemaCnt": 0,
        "latitude": "39.904213",
        "longitude": "116.40741",
        "otherCinemaCnt": 0,
        "ticketCinemaCnt": 131
    }, {
        "allCinemaCnt": 2,
        "cityId": 783,
        "cityName": "安康",
        "cityPinYin": "ankang",
        "couponCinemaCnt": 0,
        "latitude": "32.68478",
        "longitude": "109.029305",
        "otherCinemaCnt": 0,
        "ticketCinemaCnt": 2
    }, {
        "allCinemaCnt": 4,
        "cityId": 1173,
        "cityName": "安庆",
        "cityPinYin": "anqing",
        "couponCinemaCnt": 0,
        "latitude": "30.524895",
        "longitude": "117.056854",
        "otherCinemaCnt": 0,
        "ticketCinemaCnt": 4
    }, {
        "allCinemaCnt": 3,
        "cityId": 333,
        "cityName": "安顺",
        "cityPinYin": "anshun",
        "couponCinemaCnt": 0,
        "latitude": "26.253073",
        "longitude": "105.94759",
        "otherCinemaCnt": 0,
        "ticketCinemaCnt": 3
    }, {
        "allCinemaCnt": 2,
        "cityId": 158,
        "cityName": "安阳",
        "cityPinYin": "anyang",
        "couponCinemaCnt": 0,
        "latitude": "37.394253",
        "longitude": "126.95682",
        "otherCinemaCnt": 0,
        "ticketCinemaCnt": 2
    }, {
        "allCinemaCnt": 5,
        "cityId": 481,
        "cityName": "鞍山",
        "cityPinYin": "anshan",
        "couponCinemaCnt": 0,
        "latitude": "41.108547",
        "longitude": "122.994644",
        "otherCinemaCnt": 0,
        "ticketCinemaCnt": 5
    }, {
        "allCinemaCnt": 4,
        "cityId": 713,
        "cityName": "巴中",
        "cityPinYin": "bazhong",
        "couponCinemaCnt": 0,
        "latitude": "31.865236",
        "longitude": "106.74473",
        "otherCinemaCnt": 0,
        "ticketCinemaCnt": 4
    }, {
        "allCinemaCnt": 2,
        "cityId": 1541,
        "cityName": "白山",
        "cityPinYin": "baishan",
        "couponCinemaCnt": 0,
        "latitude": "41.94643",
        "longitude": "126.431052",
        "otherCinemaCnt": 0,
        "ticketCinemaCnt": 2
    }, {
        "allCinemaCnt": 3,
        "cityId": 203,
        "cityName": "白银",
        "cityPinYin": "baiyin",
        "couponCinemaCnt": 0,
        "latitude": "36.544827",
        "longitude": "104.13762",
        "otherCinemaCnt": 0,
        "ticketCinemaCnt": 3
    }, {
        "allCinemaCnt": 4,
        "cityId": 375,
        "cityName": "百色",
        "cityPinYin": "baise",
        "couponCinemaCnt": 0,
        "latitude": "23.90237",
        "longitude": "106.61828",
        "otherCinemaCnt": 0,
        "ticketCinemaCnt": 4
    }, {
        "allCinemaCnt": 9,
        "cityId": 1194,
        "cityName": "蚌埠",
        "cityPinYin": "bengbu",
        "couponCinemaCnt": 0,
        "latitude": "32.916286",
        "longitude": "117.38972",
        "otherCinemaCnt": 0,
        "ticketCinemaCnt": 9
    }, {
        "allCinemaCnt": 3,
        "cityId": 281,
        "cityName": "包头",
        "cityPinYin": "baotou",
        "couponCinemaCnt": 0,
        "latitude": "40.657448",
        "longitude": "109.840385",
        "otherCinemaCnt": 0,
        "ticketCinemaCnt": 3
    }, {
        "allCinemaCnt": 9,
        "cityId": 786,
        "cityName": "宝鸡",
        "cityPinYin": "baoji",
        "couponCinemaCnt": 0,
        "latitude": "34.362053",
        "longitude": "107.23754",
        "otherCinemaCnt": 0,
        "ticketCinemaCnt": 9
    }, {
        "allCinemaCnt": 3,
        "cityId": 960,
        "cityName": "保定",
        "cityPinYin": "baoding",
        "couponCinemaCnt": 0,
        "latitude": "38.87389",
        "longitude": "115.464806",
        "otherCinemaCnt": 0,
        "ticketCinemaCnt": 3
    }, {
        "allCinemaCnt": 5,
        "cityId": 246,
        "cityName": "保山",
        "cityPinYin": "baoshan",
        "couponCinemaCnt": 0,
        "latitude": "25.112064",
        "longitude": "99.16147",
        "otherCinemaCnt": 0,
        "ticketCinemaCnt": 5
    }, {
        "allCinemaCnt": 6,
        "cityId": 424,
        "cityName": "北海",
        "cityPinYin": "beihai",
        "couponCinemaCnt": 0,
        "latitude": "21.481216",
        "longitude": "109.119896",
        "otherCinemaCnt": 0,
        "ticketCinemaCnt": 6
    }, {
        "allCinemaCnt": 1,
        "cityId": 340,
        "cityName": "毕节",
        "cityPinYin": "bijie",
        "couponCinemaCnt": 0,
        "latitude": "27.30259",
        "longitude": "105.28399",
        "otherCinemaCnt": 0,
        "ticketCinemaCnt": 1
    }, {
        "allCinemaCnt": 3,
        "cityId": 955,
        "cityName": "滨州",
        "cityPinYin": "binzhou",
        "couponCinemaCnt": 0,
        "latitude": "37.38199",
        "longitude": "117.9707",
        "otherCinemaCnt": 0,
        "ticketCinemaCnt": 3
    }, {
        "allCinemaCnt": 3,
        "cityId": 1201,
        "cityName": "亳州",
        "cityPinYin": "bozhou",
        "couponCinemaCnt": 0,
        "latitude": "33.84458",
        "longitude": "115.77868",
        "otherCinemaCnt": 0,
        "ticketCinemaCnt": 3
    }, {
        "allCinemaCnt": 4,
        "cityId": 934,
        "cityName": "沧州",
        "cityPinYin": "cangzhou",
        "couponCinemaCnt": 0,
        "latitude": "38.304478",
        "longitude": "116.83884",
        "otherCinemaCnt": 0,
        "ticketCinemaCnt": 4
    }, {
        "allCinemaCnt": 1,
        "cityId": 1747,
        "cityName": "岑溪",
        "cityPinYin": "cenxi",
        "couponCinemaCnt": 0,
        "latitude": "22.924601",
        "longitude": "111.001332",
        "otherCinemaCnt": 0,
        "ticketCinemaCnt": 1
    }, {
        "allCinemaCnt": 1,
        "cityId": 1871,
        "cityName": "昌江",
        "cityPinYin": "changjiangxian",
        "couponCinemaCnt": 0,
        "latitude": "19.304371",
        "longitude": "109.062055",
        "otherCinemaCnt": 0,
        "ticketCinemaCnt": 1
    }, {
        "allCinemaCnt": 16,
        "cityId": 101,
        "cityName": "长春",
        "cityPinYin": "changchun",
        "couponCinemaCnt": 0,
        "latitude": "43.817085",
        "longitude": "125.32354",
        "otherCinemaCnt": 0,
        "ticketCinemaCnt": 16
    }, {
        "allCinemaCnt": 0,
        "cityId": 1805,
        "cityName": "长乐市",
        "cityPinYin": "changleshi",
        "couponCinemaCnt": 0,
        "latitude": "25.969187",
        "longitude": "119.529679",
        "otherCinemaCnt": 0,
        "ticketCinemaCnt": 1
    }, {
        "allCinemaCnt": 37,
        "cityId": 506,
        "cityName": "长沙",
        "cityPinYin": "changsha",
        "couponCinemaCnt": 0,
        "latitude": "28.228209",
        "longitude": "112.93881",
        "otherCinemaCnt": 0,
        "ticketCinemaCnt": 37
    }, {
        "allCinemaCnt": 1,
        "cityId": 1431,
        "cityName": "长兴县",
        "cityPinYin": "changxingxian",
        "couponCinemaCnt": 0,
        "latitude": "31.026667",
        "longitude": "119.91095",
        "otherCinemaCnt": 0,
        "ticketCinemaCnt": 1
    }, {
        "allCinemaCnt": 2,
        "cityId": 1043,
        "cityName": "长治",
        "cityPinYin": "changzhi",
        "couponCinemaCnt": 0,
        "latitude": "36.195385",
        "longitude": "113.11626",
        "otherCinemaCnt": 0,
        "ticketCinemaCnt": 2
    }, {
        "allCinemaCnt": 10,
        "cityId": 526,
        "cityName": "常德",
        "cityPinYin": "changde",
        "couponCinemaCnt": 0,
        "latitude": "29.031673",
        "longitude": "111.698494",
        "otherCinemaCnt": 0,
        "ticketCinemaCnt": 11
    }, {
        "allCinemaCnt": 27,
        "cityId": 127,
        "cityName": "常州",
        "cityPinYin": "changzhou",
        "couponCinemaCnt": 0,
        "latitude": "31.810078",
        "longitude": "119.97446",
        "otherCinemaCnt": 0,
        "ticketCinemaCnt": 27
    }, {
        "allCinemaCnt": 2,
        "cityId": 1096,
        "cityName": "巢湖",
        "cityPinYin": "chaohu",
        "couponCinemaCnt": 0,
        "latitude": "31.597853",
        "longitude": "117.86472",
        "otherCinemaCnt": 0,
        "ticketCinemaCnt": 2
    }, {
        "allCinemaCnt": 6,
        "cityId": 746,
        "cityName": "潮州",
        "cityPinYin": "chaozhou",
        "couponCinemaCnt": 0,
        "latitude": "23.656973",
        "longitude": "116.6226",
        "otherCinemaCnt": 0,
        "ticketCinemaCnt": 6
    }, {
        "allCinemaCnt": 10,
        "cityId": 529,
        "cityName": "郴州",
        "cityPinYin": "chenzhou",
        "couponCinemaCnt": 0,
        "latitude": "25.77051",
        "longitude": "113.01472",
        "otherCinemaCnt": 0,
        "ticketCinemaCnt": 10
    }, {
        "allCinemaCnt": 1,
        "cityId": 979,
        "cityName": "承德",
        "cityPinYin": "chengde",
        "couponCinemaCnt": 0,
        "latitude": "40.95407",
        "longitude": "117.96241",
        "otherCinemaCnt": 0,
        "ticketCinemaCnt": 1
    }, {
        "allCinemaCnt": 2,
        "cityId": 1168,
        "cityName": "池州",
        "cityPinYin": "chizhou",
        "couponCinemaCnt": 0,
        "latitude": "30.6648",
        "longitude": "117.49157",
        "otherCinemaCnt": 0,
        "ticketCinemaCnt": 2
    }, {
        "allCinemaCnt": 2,
        "cityId": 973,
        "cityName": "赤峰",
        "cityPinYin": "chifeng",
        "couponCinemaCnt": 0,
        "latitude": "42.257816",
        "longitude": "118.886856",
        "otherCinemaCnt": 0,
        "ticketCinemaCnt": 2
    }, {
        "allCinemaCnt": 3,
        "cityId": 1703,
        "cityName": "崇左",
        "cityPinYin": "chongzuo",
        "couponCinemaCnt": 0,
        "latitude": "22.415455",
        "longitude": "107.357322",
        "otherCinemaCnt": 0,
        "ticketCinemaCnt": 3
    }, {
        "allCinemaCnt": 9,
        "cityId": 1099,
        "cityName": "滁州",
        "cityPinYin": "chuzhou",
        "couponCinemaCnt": 0,
        "latitude": "32.301556",
        "longitude": "118.31711",
        "otherCinemaCnt": 0,
        "ticketCinemaCnt": 9
    }, {
        "allCinemaCnt": 1,
        "cityId": 266,
        "cityName": "楚雄",
        "cityPinYin": "chuxiong",
        "couponCinemaCnt": 0,
        "latitude": "25.045532",
        "longitude": "101.52807",
        "otherCinemaCnt": 0,
        "ticketCinemaCnt": 1
    }, {
        "allCinemaCnt": 2,
        "cityId": 718,
        "cityName": "达州",
        "cityPinYin": "dazhou",
        "couponCinemaCnt": 0,
        "latitude": "31.209572",
        "longitude": "107.468025",
        "otherCinemaCnt": 0,
        "ticketCinemaCnt": 2
    }, {
        "allCinemaCnt": 6,
        "cityId": 244,
        "cityName": "大理",
        "cityPinYin": "dali",
        "couponCinemaCnt": 0,
        "latitude": "25.606485",
        "longitude": "100.26764",
        "otherCinemaCnt": 0,
        "ticketCinemaCnt": 6
    }, {
        "allCinemaCnt": 15,
        "cityId": 574,
        "cityName": "大连",
        "cityPinYin": "dalian",
        "couponCinemaCnt": 0,
        "latitude": "38.914",
        "longitude": "121.614685",
        "otherCinemaCnt": 0,
        "ticketCinemaCnt": 15
    }, {
        "allCinemaCnt": 7,
        "cityId": 292,
        "cityName": "大庆",
        "cityPinYin": "daqingshi",
        "couponCinemaCnt": 0,
        "latitude": "46.59019",
        "longitude": "125.10464",
        "otherCinemaCnt": 0,
        "ticketCinemaCnt": 7
    }, {
        "allCinemaCnt": 2,
        "cityId": 1023,
        "cityName": "大同",
        "cityPinYin": "datong",
        "couponCinemaCnt": 0,
        "latitude": "40.076817",
        "longitude": "113.300125",
        "otherCinemaCnt": 0,
        "ticketCinemaCnt": 2
    }, {
        "allCinemaCnt": 2,
        "cityId": 479,
        "cityName": "丹东",
        "cityPinYin": "dandong",
        "couponCinemaCnt": 0,
        "latitude": "40.127342",
        "longitude": "124.38491",
        "otherCinemaCnt": 0,
        "ticketCinemaCnt": 2
    }, {
        "allCinemaCnt": 2,
        "cityId": 1980,
        "cityName": "儋州",
        "cityPinYin": "danzhou",
        "couponCinemaCnt": 0,
        "latitude": "19.527081",
        "longitude": "109.587145",
        "otherCinemaCnt": 0,
        "ticketCinemaCnt": 2
    }, {
        "allCinemaCnt": 3,
        "cityId": 686,
        "cityName": "德阳",
        "cityPinYin": "deyang",
        "couponCinemaCnt": 0,
        "latitude": "31.126856",
        "longitude": "104.39802",
        "otherCinemaCnt": 0,
        "ticketCinemaCnt": 3
    }, {
        "allCinemaCnt": 2,
        "cityId": 767,
        "cityName": "德州",
        "cityPinYin": "dezhou",
        "couponCinemaCnt": 0,
        "latitude": "37.434093",
        "longitude": "116.35747",
        "otherCinemaCnt": 0,
        "ticketCinemaCnt": 2
    }, {
        "allCinemaCnt": 1,
        "cityId": 2070,
        "cityName": "定西市",
        "cityPinYin": "dingxishi",
        "couponCinemaCnt": 0,
        "latitude": "35.587354",
        "longitude": "104.631662",
        "otherCinemaCnt": 0,
        "ticketCinemaCnt": 1
    }, {
        "allCinemaCnt": 2,
        "cityId": 1834,
        "cityName": "东方",
        "cityPinYin": "dongfang",
        "couponCinemaCnt": 0,
        "latitude": "19.101834",
        "longitude": "108.660239",
        "otherCinemaCnt": 0,
        "ticketCinemaCnt": 2
    }, {
        "allCinemaCnt": 42,
        "cityId": 467,
        "cityName": "东莞",
        "cityPinYin": "dongguan",
        "couponCinemaCnt": 0,
        "latitude": "23.020536",
        "longitude": "113.75176",
        "otherCinemaCnt": 0,
        "ticketCinemaCnt": 42
    }, {
        "allCinemaCnt": 4,
        "cityId": 969,
        "cityName": "东营",
        "cityPinYin": "dongying",
        "couponCinemaCnt": 0,
        "latitude": "37.43475",
        "longitude": "118.67477",
        "otherCinemaCnt": 0,
        "ticketCinemaCnt": 4
    }, {
        "allCinemaCnt": 2,
        "cityId": 644,
        "cityName": "都江堰",
        "cityPinYin": "dujiangyan",
        "couponCinemaCnt": 0,
        "latitude": "30.988398",
        "longitude": "103.646996",
        "otherCinemaCnt": 0,
        "ticketCinemaCnt": 2
    }, {
        "allCinemaCnt": 2,
        "cityId": 765,
        "cityName": "峨眉山",
        "cityPinYin": "emeishan",
        "couponCinemaCnt": 0,
        "latitude": "29.601198",
        "longitude": "103.484505",
        "otherCinemaCnt": 0,
        "ticketCinemaCnt": 2
    }, {
        "allCinemaCnt": 3,
        "cityId": 290,
        "cityName": "鄂尔多斯",
        "cityPinYin": "eerduosi",
        "couponCinemaCnt": 0,
        "latitude": "39.608265",
        "longitude": "109.78133",
        "otherCinemaCnt": 0,
        "ticketCinemaCnt": 3
    }, {
        "allCinemaCnt": 2,
        "cityId": 173,
        "cityName": "鄂州",
        "cityPinYin": "ezhou",
        "couponCinemaCnt": 0,
        "latitude": "30.39194",
        "longitude": "114.894844",
        "otherCinemaCnt": 0,
        "ticketCinemaCnt": 2
    }, {
        "allCinemaCnt": 9,
        "cityId": 1215,
        "cityName": "恩施",
        "cityPinYin": "enshitujiazumiaozuzizhizhou",
        "couponCinemaCnt": 0,
        "latitude": "30.272156",
        "longitude": "109.488174",
        "otherCinemaCnt": 0,
        "ticketCinemaCnt": 9
    }, {
        "allCinemaCnt": 3,
        "cityId": 1659,
        "cityName": "防城港",
        "cityPinYin": "fangchenggang",
        "couponCinemaCnt": 0,
        "latitude": "21.640934",
        "longitude": "108.361767",
        "otherCinemaCnt": 0,
        "ticketCinemaCnt": 3
    }, {
        "allCinemaCnt": 1,
        "cityId": 1626,
        "cityName": "凤城",
        "cityPinYin": "fengchengshi",
        "couponCinemaCnt": 0,
        "latitude": "40.459071",
        "longitude": "124.072471",
        "otherCinemaCnt": 0,
        "ticketCinemaCnt": 1
    }, {
        "allCinemaCnt": 52,
        "cityId": 411,
        "cityName": "佛山",
        "cityPinYin": "foshan",
        "couponCinemaCnt": 0,
        "latitude": "23.021547",
        "longitude": "113.121414",
        "otherCinemaCnt": 0,
        "ticketCinemaCnt": 52
    }, {
        "allCinemaCnt": 4,
        "cityId": 1620,
        "cityName": "福清",
        "cityPinYin": "fuqing",
        "couponCinemaCnt": 0,
        "latitude": "25.638121",
        "longitude": "119.0377547",
        "otherCinemaCnt": 0,
        "ticketCinemaCnt": 4
    }, {
        "allCinemaCnt": 28,
        "cityId": 103,
        "cityName": "福州",
        "cityPinYin": "fuzhou",
        "couponCinemaCnt": 0,
        "latitude": "26.074509",
        "longitude": "119.29649",
        "otherCinemaCnt": 0,
        "ticketCinemaCnt": 28
    }, {
        "allCinemaCnt": 6,
        "cityId": 454,
        "cityName": "抚顺",
        "cityPinYin": "fushun",
        "couponCinemaCnt": 0,
        "latitude": "41.88087",
        "longitude": "123.95721",
        "otherCinemaCnt": 0,
        "ticketCinemaCnt": 6
    }, {
        "allCinemaCnt": 7,
        "cityId": 935,
        "cityName": "抚州",
        "cityPinYin": "fuzhou935",
        "couponCinemaCnt": 0,
        "latitude": "27.9492",
        "longitude": "116.35818",
        "otherCinemaCnt": 0,
        "ticketCinemaCnt": 7
    }, {
        "allCinemaCnt": 2,
        "cityId": 1658,
        "cityName": "阜新",
        "cityPinYin": "fuxin",
        "couponCinemaCnt": 0,
        "latitude": "42.01925",
        "longitude": "121.660822",
        "otherCinemaCnt": 0,
        "ticketCinemaCnt": 2
    }, {
        "allCinemaCnt": 6,
        "cityId": 1510,
        "cityName": "阜阳",
        "cityPinYin": "fuyang",
        "couponCinemaCnt": 0,
        "latitude": "32.895879",
        "longitude": "115.821389",
        "otherCinemaCnt": 0,
        "ticketCinemaCnt": 6
    }, {
        "allCinemaCnt": 14,
        "cityId": 869,
        "cityName": "赣州",
        "cityPinYin": "ganzhou",
        "couponCinemaCnt": 0,
        "latitude": "25.831924",
        "longitude": "114.93503",
        "otherCinemaCnt": 0,
        "ticketCinemaCnt": 14
    }, {
        "allCinemaCnt": 2,
        "cityId": 238,
        "cityName": "固原",
        "cityPinYin": "guyuan",
        "couponCinemaCnt": 0,
        "latitude": "36.015854",
        "longitude": "106.24261",
        "otherCinemaCnt": 0,
        "ticketCinemaCnt": 2
    }, {
        "allCinemaCnt": 1,
        "cityId": 1984,
        "cityName": "广安",
        "cityPinYin": "guangan",
        "couponCinemaCnt": 0,
        "latitude": "30.461708",
        "longitude": "106.639772",
        "otherCinemaCnt": 0,
        "ticketCinemaCnt": 1
    }, {
        "allCinemaCnt": 2,
        "cityId": 1991,
        "cityName": "广元",
        "cityPinYin": "guangyuan",
        "couponCinemaCnt": 0,
        "latitude": "32.441808",
        "longitude": "105.849993",
        "otherCinemaCnt": 0,
        "ticketCinemaCnt": 2
    }, {
        "allCinemaCnt": 3,
        "cityId": 428,
        "cityName": "贵港",
        "cityPinYin": "guigang",
        "couponCinemaCnt": 0,
        "latitude": "23.11153",
        "longitude": "109.59893",
        "otherCinemaCnt": 0,
        "ticketCinemaCnt": 3
    }, {
        "allCinemaCnt": 5,
        "cityId": 302,
        "cityName": "贵阳",
        "cityPinYin": "guiyang",
        "couponCinemaCnt": 0,
        "latitude": "26.64745",
        "longitude": "106.63014",
        "otherCinemaCnt": 0,
        "ticketCinemaCnt": 5
    }, {
        "allCinemaCnt": 10,
        "cityId": 413,
        "cityName": "桂林",
        "cityPinYin": "guilin",
        "couponCinemaCnt": 0,
        "latitude": "25.273565",
        "longitude": "110.29019",
        "otherCinemaCnt": 0,
        "ticketCinemaCnt": 10
    }, {
        "allCinemaCnt": 3,
        "cityId": 353,
        "cityName": "哈尔滨",
        "cityPinYin": "haerbin",
        "couponCinemaCnt": 0,
        "latitude": "45.803776",
        "longitude": "126.534966",
        "otherCinemaCnt": 0,
        "ticketCinemaCnt": 3
    }, {
        "allCinemaCnt": 1,
        "cityId": 1901,
        "cityName": "海东",
        "cityPinYin": "haidong",
        "couponCinemaCnt": 0,
        "latitude": "36.51761",
        "longitude": "102.085207",
        "otherCinemaCnt": 0,
        "ticketCinemaCnt": 1
    }, {
        "allCinemaCnt": 9,
        "cityId": 86,
        "cityName": "海口",
        "cityPinYin": "haikou",
        "couponCinemaCnt": 0,
        "latitude": "20.030792",
        "longitude": "110.32886",
        "otherCinemaCnt": 0,
        "ticketCinemaCnt": 9
    }, {
        "allCinemaCnt": 9,
        "cityId": 832,
        "cityName": "邯郸",
        "cityPinYin": "handan",
        "couponCinemaCnt": 0,
        "latitude": "36.625603",
        "longitude": "114.539085",
        "otherCinemaCnt": 0,
        "ticketCinemaCnt": 9
    }, {
        "allCinemaCnt": 4,
        "cityId": 781,
        "cityName": "汉中",
        "cityPinYin": "hanzhong",
        "couponCinemaCnt": 0,
        "latitude": "33.06748",
        "longitude": "107.02332",
        "otherCinemaCnt": 0,
        "ticketCinemaCnt": 4
    }, {
        "allCinemaCnt": 39,
        "cityId": 989,
        "cityName": "合肥",
        "cityPinYin": "hefei",
        "couponCinemaCnt": 0,
        "latitude": "31.821447",
        "longitude": "117.22727",
        "otherCinemaCnt": 0,
        "ticketCinemaCnt": 39
    }, {
        "allCinemaCnt": 1,
        "cityId": 419,
        "cityName": "河池",
        "cityPinYin": "hechi",
        "couponCinemaCnt": 0,
        "latitude": "24.69293",
        "longitude": "108.08526",
        "otherCinemaCnt": 0,
        "ticketCinemaCnt": 1
    }, {
        "allCinemaCnt": 7,
        "cityId": 731,
        "cityName": "河源",
        "cityPinYin": "heyuan",
        "couponCinemaCnt": 0,
        "latitude": "23.743538",
        "longitude": "114.70045",
        "otherCinemaCnt": 0,
        "ticketCinemaCnt": 7
    }, {
        "allCinemaCnt": 4,
        "cityId": 1098,
        "cityName": "菏泽",
        "cityPinYin": "heze",
        "couponCinemaCnt": 0,
        "latitude": "35.23375",
        "longitude": "115.48066",
        "otherCinemaCnt": 0,
        "ticketCinemaCnt": 4
    }, {
        "allCinemaCnt": 1,
        "cityId": 421,
        "cityName": "贺州",
        "cityPinYin": "hezhou",
        "couponCinemaCnt": 0,
        "latitude": "24.40357",
        "longitude": "111.56675",
        "otherCinemaCnt": 0,
        "ticketCinemaCnt": 1
    }, {
        "allCinemaCnt": 2,
        "cityId": 169,
        "cityName": "鹤壁",
        "cityPinYin": "hebi",
        "couponCinemaCnt": 0,
        "latitude": "35.747227",
        "longitude": "114.29727",
        "otherCinemaCnt": 0,
        "ticketCinemaCnt": 2
    }, {
        "allCinemaCnt": 1,
        "cityId": 2043,
        "cityName": "衡水",
        "cityPinYin": "hengshui",
        "couponCinemaCnt": 0,
        "latitude": "37.745166",
        "longitude": "115.676942",
        "otherCinemaCnt": 0,
        "ticketCinemaCnt": 1
    }, {
        "allCinemaCnt": 8,
        "cityId": 522,
        "cityName": "衡阳",
        "cityPinYin": "hengyang",
        "couponCinemaCnt": 0,
        "latitude": "26.89384",
        "longitude": "112.5719",
        "otherCinemaCnt": 0,
        "ticketCinemaCnt": 8
    }, {
        "allCinemaCnt": 4,
        "cityId": 1550,
        "cityName": "红河",
        "cityPinYin": "honghe",
        "couponCinemaCnt": 0,
        "latitude": "23.369914",
        "longitude": "103.38215",
        "otherCinemaCnt": 0,
        "ticketCinemaCnt": 4
    }, {
        "allCinemaCnt": 6,
        "cityId": 93,
        "cityName": "呼和浩特",
        "cityPinYin": "huhehaote",
        "couponCinemaCnt": 0,
        "latitude": "40.84231",
        "longitude": "111.74885",
        "otherCinemaCnt": 0,
        "ticketCinemaCnt": 6
    }, {
        "allCinemaCnt": 3,
        "cityId": 299,
        "cityName": "呼伦贝尔",
        "cityPinYin": "hulunbeier",
        "couponCinemaCnt": 0,
        "latitude": "49.21157",
        "longitude": "119.76574",
        "otherCinemaCnt": 0,
        "ticketCinemaCnt": 3
    }, {
        "allCinemaCnt": 10,
        "cityId": 1422,
        "cityName": "湖州",
        "cityPinYin": "huzhou",
        "couponCinemaCnt": 0,
        "latitude": "30.894348",
        "longitude": "120.08682",
        "otherCinemaCnt": 0,
        "ticketCinemaCnt": 10
    }, {
        "allCinemaCnt": 7,
        "cityId": 493,
        "cityName": "葫芦岛",
        "cityPinYin": "huludao",
        "couponCinemaCnt": 0,
        "latitude": "40.711052",
        "longitude": "120.83693",
        "otherCinemaCnt": 0,
        "ticketCinemaCnt": 7
    }, {
        "allCinemaCnt": 1,
        "cityId": 1525,
        "cityName": "化州",
        "cityPinYin": "huazhou",
        "couponCinemaCnt": 0,
        "latitude": "21.670301",
        "longitude": "110.645971",
        "otherCinemaCnt": 0,
        "ticketCinemaCnt": 1
    }, {
        "allCinemaCnt": 4,
        "cityId": 531,
        "cityName": "怀化",
        "cityPinYin": "huaihua",
        "couponCinemaCnt": 0,
        "latitude": "27.554977",
        "longitude": "109.99849",
        "otherCinemaCnt": 0,
        "ticketCinemaCnt": 4
    }, {
        "allCinemaCnt": 7,
        "cityId": 1249,
        "cityName": "淮安",
        "cityPinYin": "huaian",
        "couponCinemaCnt": 0,
        "latitude": "33.61036",
        "longitude": "119.01529",
        "otherCinemaCnt": 0,
        "ticketCinemaCnt": 7
    }, {
        "allCinemaCnt": 3,
        "cityId": 1468,
        "cityName": "淮北",
        "cityPinYin": "huaibei",
        "couponCinemaCnt": 0,
        "latitude": "33.960023",
        "longitude": "116.791447",
        "otherCinemaCnt": 0,
        "ticketCinemaCnt": 3
    }, {
        "allCinemaCnt": 5,
        "cityId": 763,
        "cityName": "淮南",
        "cityPinYin": "huainan",
        "couponCinemaCnt": 0,
        "latitude": "32.625477",
        "longitude": "116.99993",
        "otherCinemaCnt": 0,
        "ticketCinemaCnt": 5
    }, {
        "allCinemaCnt": 9,
        "cityId": 163,
        "cityName": "黄冈",
        "cityPinYin": "huanggang",
        "couponCinemaCnt": 0,
        "latitude": "30.453905",
        "longitude": "114.872314",
        "otherCinemaCnt": 0,
        "ticketCinemaCnt": 9
    }, {
        "allCinemaCnt": 8,
        "cityId": 1408,
        "cityName": "黄山",
        "cityPinYin": "huangshan",
        "couponCinemaCnt": 0,
        "latitude": "29.714684",
        "longitude": "118.33748",
        "otherCinemaCnt": 0,
        "ticketCinemaCnt": 8
    }, {
        "allCinemaCnt": 6,
        "cityId": 160,
        "cityName": "黄石",
        "cityPinYin": "huangshi",
        "couponCinemaCnt": 0,
        "latitude": "30.199652",
        "longitude": "115.03852",
        "otherCinemaCnt": 0,
        "ticketCinemaCnt": 6
    }, {
        "allCinemaCnt": 20,
        "cityId": 464,
        "cityName": "惠州",
        "cityPinYin": "huizhou",
        "couponCinemaCnt": 0,
        "latitude": "23.111847",
        "longitude": "114.4162",
        "otherCinemaCnt": 0,
        "ticketCinemaCnt": 20
    }, {
        "allCinemaCnt": 6,
        "cityId": 915,
        "cityName": "吉安",
        "cityPinYin": "jian",
        "couponCinemaCnt": 0,
        "latitude": "27.113039",
        "longitude": "114.99291",
        "otherCinemaCnt": 0,
        "ticketCinemaCnt": 6
    }, {
        "allCinemaCnt": 3,
        "cityId": 459,
        "cityName": "吉林",
        "cityPinYin": "jielinshi",
        "couponCinemaCnt": 0,
        "latitude": "43.837883",
        "longitude": "126.549576",
        "otherCinemaCnt": 0,
        "ticketCinemaCnt": 3
    }, {
        "allCinemaCnt": 14,
        "cityId": 122,
        "cityName": "济南",
        "cityPinYin": "jinan",
        "couponCinemaCnt": 0,
        "latitude": "36.665283",
        "longitude": "116.99492",
        "otherCinemaCnt": 0,
        "ticketCinemaCnt": 14
    }, {
        "allCinemaCnt": 4,
        "cityId": 1060,
        "cityName": "济宁",
        "cityPinYin": "jining",
        "couponCinemaCnt": 0,
        "latitude": "35.41492",
        "longitude": "116.5871",
        "otherCinemaCnt": 0,
        "ticketCinemaCnt": 4
    }, {
        "allCinemaCnt": 3,
        "cityId": 208,
        "cityName": "济源",
        "cityPinYin": "jiyuan",
        "couponCinemaCnt": 0,
        "latitude": "35.06724",
        "longitude": "112.60192",
        "otherCinemaCnt": 0,
        "ticketCinemaCnt": 3
    }, {
        "allCinemaCnt": 2,
        "cityId": 317,
        "cityName": "佳木斯",
        "cityPinYin": "jiamusishi",
        "couponCinemaCnt": 0,
        "latitude": "46.799923",
        "longitude": "130.31892",
        "otherCinemaCnt": 0,
        "ticketCinemaCnt": 2
    }, {
        "allCinemaCnt": 28,
        "cityId": 1052,
        "cityName": "嘉兴",
        "cityPinYin": "jiaxing",
        "couponCinemaCnt": 0,
        "latitude": "30.753923",
        "longitude": "120.758545",
        "otherCinemaCnt": 0,
        "ticketCinemaCnt": 28
    }, {
        "allCinemaCnt": 2,
        "cityId": 192,
        "cityName": "嘉峪关",
        "cityPinYin": "jiayuguan",
        "couponCinemaCnt": 0,
        "latitude": "39.77313",
        "longitude": "98.289154",
        "otherCinemaCnt": 0,
        "ticketCinemaCnt": 2
    }, {
        "allCinemaCnt": 19,
        "cityId": 393,
        "cityName": "江门",
        "cityPinYin": "jiangmen",
        "couponCinemaCnt": 0,
        "latitude": "22.578737",
        "longitude": "113.0819",
        "otherCinemaCnt": 0,
        "ticketCinemaCnt": 19
    }, {
        "allCinemaCnt": 10,
        "cityId": 188,
        "cityName": "焦作",
        "cityPinYin": "jiaozuo",
        "couponCinemaCnt": 0,
        "latitude": "35.215893",
        "longitude": "113.24182",
        "otherCinemaCnt": 0,
        "ticketCinemaCnt": 10
    }, {
        "allCinemaCnt": 9,
        "cityId": 739,
        "cityName": "揭阳",
        "cityPinYin": "jieyang",
        "couponCinemaCnt": 0,
        "latitude": "23.549994",
        "longitude": "116.37283",
        "otherCinemaCnt": 0,
        "ticketCinemaCnt": 9
    }, {
        "allCinemaCnt": 1,
        "cityId": 1741,
        "cityName": "金昌",
        "cityPinYin": "jinchang",
        "couponCinemaCnt": 0,
        "latitude": "38.525777",
        "longitude": "102.194197",
        "otherCinemaCnt": 0,
        "ticketCinemaCnt": 1
    }, {
        "allCinemaCnt": 20,
        "cityId": 1401,
        "cityName": "金华",
        "cityPinYin": "jinhua",
        "couponCinemaCnt": 0,
        "latitude": "29.07906",
        "longitude": "119.647446",
        "otherCinemaCnt": 0,
        "ticketCinemaCnt": 20
    }, {
        "allCinemaCnt": 2,
        "cityId": 486,
        "cityName": "锦州",
        "cityPinYin": "jinzhou",
        "couponCinemaCnt": 0,
        "latitude": "41.09512",
        "longitude": "121.12701",
        "otherCinemaCnt": 0,
        "ticketCinemaCnt": 2
    }, {
        "allCinemaCnt": 6,
        "cityId": 1069,
        "cityName": "晋城",
        "cityPinYin": "jincheng",
        "couponCinemaCnt": 0,
        "latitude": "35.49087",
        "longitude": "112.85177",
        "otherCinemaCnt": 0,
        "ticketCinemaCnt": 6
    }, {
        "allCinemaCnt": 2,
        "cityId": 1088,
        "cityName": "晋中",
        "cityPinYin": "jinzhong",
        "couponCinemaCnt": 0,
        "latitude": "37.687023",
        "longitude": "112.75269",
        "otherCinemaCnt": 0,
        "ticketCinemaCnt": 2
    }, {
        "allCinemaCnt": 5,
        "cityId": 1221,
        "cityName": "荆门",
        "cityPinYin": "jingmen",
        "couponCinemaCnt": 0,
        "latitude": "31.035423",
        "longitude": "112.199265",
        "otherCinemaCnt": 0,
        "ticketCinemaCnt": 5
    }, {
        "allCinemaCnt": 5,
        "cityId": 1223,
        "cityName": "荆州",
        "cityPinYin": "jingzhou",
        "couponCinemaCnt": 0,
        "latitude": "30.335165",
        "longitude": "112.23974",
        "otherCinemaCnt": 0,
        "ticketCinemaCnt": 5
    }, {
        "allCinemaCnt": 3,
        "cityId": 837,
        "cityName": "景德镇",
        "cityPinYin": "jingdezhen",
        "couponCinemaCnt": 0,
        "latitude": "29.268835",
        "longitude": "117.17842",
        "otherCinemaCnt": 0,
        "ticketCinemaCnt": 3
    }, {
        "allCinemaCnt": 1,
        "cityId": 252,
        "cityName": "景洪",
        "cityPinYin": "jinghong",
        "couponCinemaCnt": 0,
        "latitude": "22.01071",
        "longitude": "100.799774",
        "otherCinemaCnt": 0,
        "ticketCinemaCnt": 1
    }, {
        "allCinemaCnt": 11,
        "cityId": 150,
        "cityName": "九江",
        "cityPinYin": "jiujiang",
        "couponCinemaCnt": 0,
        "latitude": "29.705103",
        "longitude": "116.00195",
        "otherCinemaCnt": 0,
        "ticketCinemaCnt": 11
    }, {
        "allCinemaCnt": 3,
        "cityId": 194,
        "cityName": "酒泉",
        "cityPinYin": "jiuquan",
        "couponCinemaCnt": 0,
        "latitude": "39.732487",
        "longitude": "98.49441",
        "otherCinemaCnt": 0,
        "ticketCinemaCnt": 3
    }, {
        "allCinemaCnt": 8,
        "cityId": 183,
        "cityName": "开封",
        "cityPinYin": "kaifeng",
        "couponCinemaCnt": 0,
        "latitude": "34.797237",
        "longitude": "114.30758",
        "otherCinemaCnt": 0,
        "ticketCinemaCnt": 8
    }, {
        "allCinemaCnt": 1,
        "cityId": 264,
        "cityName": "开远",
        "cityPinYin": "kaiyuan",
        "couponCinemaCnt": 0,
        "latitude": "23.714281",
        "longitude": "103.26785",
        "otherCinemaCnt": 0,
        "ticketCinemaCnt": 1
    }, {
        "allCinemaCnt": 1,
        "cityId": 363,
        "cityName": "凯里",
        "cityPinYin": "kaili",
        "couponCinemaCnt": 0,
        "latitude": "26.566853",
        "longitude": "107.98112",
        "otherCinemaCnt": 0,
        "ticketCinemaCnt": 1
    }, {
        "allCinemaCnt": 29,
        "cityId": 272,
        "cityName": "昆明",
        "cityPinYin": "kunming",
        "couponCinemaCnt": 0,
        "latitude": "25.037722",
        "longitude": "102.7222",
        "otherCinemaCnt": 0,
        "ticketCinemaCnt": 29
    }, {
        "allCinemaCnt": 9,
        "cityId": 1315,
        "cityName": "昆山",
        "cityPinYin": "kunshan",
        "couponCinemaCnt": 0,
        "latitude": "31.3909",
        "longitude": "120.988266",
        "otherCinemaCnt": 0,
        "ticketCinemaCnt": 9
    }, {
        "allCinemaCnt": 3,
        "cityId": 1848,
        "cityName": "来宾",
        "cityPinYin": "laibin",
        "couponCinemaCnt": 0,
        "latitude": "23.758226",
        "longitude": "109.228844",
        "otherCinemaCnt": 0,
        "ticketCinemaCnt": 3
    }, {
        "allCinemaCnt": 1,
        "cityId": 863,
        "cityName": "莱芜",
        "cityPinYin": "laiwu",
        "couponCinemaCnt": 0,
        "latitude": "36.21369",
        "longitude": "117.67673",
        "otherCinemaCnt": 0,
        "ticketCinemaCnt": 1
    }, {
        "allCinemaCnt": 3,
        "cityId": 965,
        "cityName": "廊坊",
        "cityPinYin": "langfang",
        "couponCinemaCnt": 0,
        "latitude": "39.54352",
        "longitude": "116.69034",
        "otherCinemaCnt": 0,
        "ticketCinemaCnt": 3
    }, {
        "allCinemaCnt": 1,
        "cityId": 1925,
        "cityName": "乐东",
        "cityPinYin": "ledonglizuzizhixian",
        "couponCinemaCnt": 0,
        "latitude": "18.755925",
        "longitude": "109.180119",
        "otherCinemaCnt": 0,
        "ticketCinemaCnt": 1
    }, {
        "allCinemaCnt": 6,
        "cityId": 761,
        "cityName": "乐山",
        "cityPinYin": "leshan",
        "couponCinemaCnt": 0,
        "latitude": "29.552107",
        "longitude": "103.76557",
        "otherCinemaCnt": 0,
        "ticketCinemaCnt": 6
    }, {
        "allCinemaCnt": 2,
        "cityId": 242,
        "cityName": "丽江",
        "cityPinYin": "lijiang",
        "couponCinemaCnt": 0,
        "latitude": "26.876774",
        "longitude": "100.23038",
        "otherCinemaCnt": 0,
        "ticketCinemaCnt": 2
    }, {
        "allCinemaCnt": 4,
        "cityId": 1386,
        "cityName": "丽水",
        "cityPinYin": "lishui",
        "couponCinemaCnt": 0,
        "latitude": "28.46763",
        "longitude": "119.9228",
        "otherCinemaCnt": 0,
        "ticketCinemaCnt": 4
    }, {
        "allCinemaCnt": 5,
        "cityId": 1248,
        "cityName": "连云港",
        "cityPinYin": "lianyungang",
        "couponCinemaCnt": 0,
        "latitude": "34.596542",
        "longitude": "119.22128",
        "otherCinemaCnt": 0,
        "ticketCinemaCnt": 5
    }, {
        "allCinemaCnt": 2,
        "cityId": 1553,
        "cityName": "辽阳",
        "cityPinYin": "liaoyang",
        "couponCinemaCnt": 0,
        "latitude": "41.274452",
        "longitude": "123.243726",
        "otherCinemaCnt": 0,
        "ticketCinemaCnt": 2
    }, {
        "allCinemaCnt": 1,
        "cityId": 1743,
        "cityName": "辽源市",
        "cityPinYin": "liaoyuanshi",
        "couponCinemaCnt": 0,
        "latitude": "42.8943",
        "longitude": "125.150107",
        "otherCinemaCnt": 0,
        "ticketCinemaCnt": 1
    }, {
        "allCinemaCnt": 4,
        "cityId": 773,
        "cityName": "聊城",
        "cityPinYin": "liaocheng",
        "couponCinemaCnt": 0,
        "latitude": "36.456703",
        "longitude": "115.985374",
        "otherCinemaCnt": 0,
        "ticketCinemaCnt": 4
    }, {
        "allCinemaCnt": 3,
        "cityId": 250,
        "cityName": "临沧",
        "cityPinYin": "lincang",
        "couponCinemaCnt": 0,
        "latitude": "23.877573",
        "longitude": "100.07958",
        "otherCinemaCnt": 0,
        "ticketCinemaCnt": 3
    }, {
        "allCinemaCnt": 5,
        "cityId": 1147,
        "cityName": "临汾",
        "cityPinYin": "linfen",
        "couponCinemaCnt": 0,
        "latitude": "36.088066",
        "longitude": "111.51888",
        "otherCinemaCnt": 0,
        "ticketCinemaCnt": 5
    }, {
        "allCinemaCnt": 3,
        "cityId": 1582,
        "cityName": "临夏",
        "cityPinYin": "linxia",
        "couponCinemaCnt": 0,
        "latitude": "35.607475",
        "longitude": "103.217303",
        "otherCinemaCnt": 0,
        "ticketCinemaCnt": 3
    }, {
        "allCinemaCnt": 7,
        "cityId": 1013,
        "cityName": "临沂",
        "cityPinYin": "linyi",
        "couponCinemaCnt": 0,
        "latitude": "35.10467",
        "longitude": "118.356445",
        "otherCinemaCnt": 0,
        "ticketCinemaCnt": 7
    }, {
        "allCinemaCnt": 6,
        "cityId": 395,
        "cityName": "柳州",
        "cityPinYin": "liuzhou",
        "couponCinemaCnt": 0,
        "latitude": "24.325502",
        "longitude": "109.415955",
        "otherCinemaCnt": 0,
        "ticketCinemaCnt": 6
    }, {
        "allCinemaCnt": 6,
        "cityId": 1188,
        "cityName": "六安",
        "cityPinYin": "liuan",
        "couponCinemaCnt": 0,
        "latitude": "31.74501",
        "longitude": "116.50569",
        "otherCinemaCnt": 0,
        "ticketCinemaCnt": 6
    }, {
        "allCinemaCnt": 1,
        "cityId": 321,
        "cityName": "六盘水",
        "cityPinYin": "liupanshui",
        "couponCinemaCnt": 0,
        "latitude": "26.592667",
        "longitude": "104.83036",
        "otherCinemaCnt": 0,
        "ticketCinemaCnt": 1
    }, {
        "allCinemaCnt": 4,
        "cityId": 1512,
        "cityName": "龙岩",
        "cityPinYin": "longyan",
        "couponCinemaCnt": 0,
        "latitude": "25.081257",
        "longitude": "117.023668",
        "otherCinemaCnt": 0,
        "ticketCinemaCnt": 4
    }, {
        "allCinemaCnt": 9,
        "cityId": 532,
        "cityName": "娄底",
        "cityPinYin": "loudi",
        "couponCinemaCnt": 0,
        "latitude": "27.701693",
        "longitude": "111.996",
        "otherCinemaCnt": 0,
        "ticketCinemaCnt": 9
    }, {
        "allCinemaCnt": 3,
        "cityId": 694,
        "cityName": "泸州",
        "cityPinYin": "luzhou",
        "couponCinemaCnt": 0,
        "latitude": "28.87182",
        "longitude": "105.442345",
        "otherCinemaCnt": 0,
        "ticketCinemaCnt": 3
    }, {
        "allCinemaCnt": 2,
        "cityId": 1171,
        "cityName": "吕梁",
        "cityPinYin": "lvliang",
        "couponCinemaCnt": 0,
        "latitude": "37.518314",
        "longitude": "111.14432",
        "otherCinemaCnt": 0,
        "ticketCinemaCnt": 2
    }, {
        "allCinemaCnt": 8,
        "cityId": 338,
        "cityName": "洛阳",
        "cityPinYin": "luoyang",
        "couponCinemaCnt": 0,
        "latitude": "34.61845",
        "longitude": "112.45429",
        "otherCinemaCnt": 0,
        "ticketCinemaCnt": 8
    }, {
        "allCinemaCnt": 3,
        "cityId": 370,
        "cityName": "漯河",
        "cityPinYin": "luohe",
        "couponCinemaCnt": 0,
        "latitude": "33.581413",
        "longitude": "114.01654",
        "otherCinemaCnt": 0,
        "ticketCinemaCnt": 3
    }, {
        "allCinemaCnt": 10,
        "cityId": 1067,
        "cityName": "马鞍山",
        "cityPinYin": "maanshan",
        "couponCinemaCnt": 0,
        "latitude": "31.7078",
        "longitude": "118.502",
        "otherCinemaCnt": 0,
        "ticketCinemaCnt": 10
    }, {
        "allCinemaCnt": 1,
        "cityId": 1688,
        "cityName": "满洲里",
        "cityPinYin": "manzhouli",
        "couponCinemaCnt": 0,
        "latitude": "49.602759",
        "longitude": "117.384792",
        "otherCinemaCnt": 0,
        "ticketCinemaCnt": 1
    }, {
        "allCinemaCnt": 7,
        "cityId": 335,
        "cityName": "茂名",
        "cityPinYin": "maoming",
        "couponCinemaCnt": 0,
        "latitude": "21.662998",
        "longitude": "110.92545",
        "otherCinemaCnt": 0,
        "ticketCinemaCnt": 7
    }, {
        "allCinemaCnt": 1,
        "cityId": 566,
        "cityName": "眉山",
        "cityPinYin": "meishan",
        "couponCinemaCnt": 0,
        "latitude": "30.07544",
        "longitude": "103.84854",
        "otherCinemaCnt": 0,
        "ticketCinemaCnt": 1
    }, {
        "allCinemaCnt": 9,
        "cityId": 757,
        "cityName": "梅州",
        "cityPinYin": "meizhou",
        "couponCinemaCnt": 0,
        "latitude": "24.288383",
        "longitude": "116.12247",
        "otherCinemaCnt": 0,
        "ticketCinemaCnt": 9
    }, {
        "allCinemaCnt": 1,
        "cityId": 256,
        "cityName": "蒙自",
        "cityPinYin": "mengzi",
        "couponCinemaCnt": 0,
        "latitude": "23.365616",
        "longitude": "103.388084",
        "otherCinemaCnt": 0,
        "ticketCinemaCnt": 1
    }, {
        "allCinemaCnt": 7,
        "cityId": 690,
        "cityName": "绵阳",
        "cityPinYin": "mianyang",
        "couponCinemaCnt": 0,
        "latitude": "31.46745",
        "longitude": "104.679115",
        "otherCinemaCnt": 0,
        "ticketCinemaCnt": 7
    }, {
        "allCinemaCnt": 2,
        "cityId": 345,
        "cityName": "牡丹江",
        "cityPinYin": "mudanjiang",
        "couponCinemaCnt": 0,
        "latitude": "44.551655",
        "longitude": "129.63316",
        "otherCinemaCnt": 0,
        "ticketCinemaCnt": 2
    }, {
        "allCinemaCnt": 5,
        "cityId": 750,
        "cityName": "内江",
        "cityPinYin": "neijiang",
        "couponCinemaCnt": 0,
        "latitude": "29.580229",
        "longitude": "105.05843",
        "otherCinemaCnt": 0,
        "ticketCinemaCnt": 5
    }, {
        "allCinemaCnt": 14,
        "cityId": 804,
        "cityName": "南昌",
        "cityPinYin": "nanchang",
        "couponCinemaCnt": 0,
        "latitude": "28.68316",
        "longitude": "115.858086",
        "otherCinemaCnt": 0,
        "ticketCinemaCnt": 15
    }, {
        "allCinemaCnt": 13,
        "cityId": 721,
        "cityName": "南充",
        "cityPinYin": "nanchong",
        "couponCinemaCnt": 0,
        "latitude": "30.837793",
        "longitude": "106.110695",
        "otherCinemaCnt": 0,
        "ticketCinemaCnt": 13
    }, {
        "allCinemaCnt": 26,
        "cityId": 379,
        "cityName": "南宁",
        "cityPinYin": "nanning",
        "couponCinemaCnt": 0,
        "latitude": "22.817642",
        "longitude": "108.36563",
        "otherCinemaCnt": 0,
        "ticketCinemaCnt": 26
    }, {
        "allCinemaCnt": 3,
        "cityId": 1277,
        "cityName": "南平",
        "cityPinYin": "nanping",
        "couponCinemaCnt": 0,
        "latitude": "26.64177",
        "longitude": "118.17771",
        "otherCinemaCnt": 0,
        "ticketCinemaCnt": 3
    }, {
        "allCinemaCnt": 24,
        "cityId": 1247,
        "cityName": "南通",
        "cityPinYin": "nantong",
        "couponCinemaCnt": 0,
        "latitude": "31.980185",
        "longitude": "120.89433",
        "otherCinemaCnt": 0,
        "ticketCinemaCnt": 24
    }, {
        "allCinemaCnt": 4,
        "cityId": 401,
        "cityName": "南阳",
        "cityPinYin": "nanyang",
        "couponCinemaCnt": 0,
        "latitude": "32.990616",
        "longitude": "112.52834",
        "otherCinemaCnt": 0,
        "ticketCinemaCnt": 4
    }, {
        "allCinemaCnt": 34,
        "cityId": 1346,
        "cityName": "宁波",
        "cityPinYin": "ningbo",
        "couponCinemaCnt": 0,
        "latitude": "29.868336",
        "longitude": "121.54399",
        "otherCinemaCnt": 0,
        "ticketCinemaCnt": 34
    }, {
        "allCinemaCnt": 8,
        "cityId": 1289,
        "cityName": "宁德",
        "cityPinYin": "ningde",
        "couponCinemaCnt": 0,
        "latitude": "26.665617",
        "longitude": "119.547935",
        "otherCinemaCnt": 0,
        "ticketCinemaCnt": 8
    }, {
        "allCinemaCnt": 2,
        "cityId": 777,
        "cityName": "攀枝花",
        "cityPinYin": "panzhihua",
        "couponCinemaCnt": 0,
        "latitude": "26.582348",
        "longitude": "101.718636",
        "otherCinemaCnt": 0,
        "ticketCinemaCnt": 2
    }, {
        "allCinemaCnt": 3,
        "cityId": 484,
        "cityName": "盘锦",
        "cityPinYin": "panjin",
        "couponCinemaCnt": 0,
        "latitude": "41.119995",
        "longitude": "122.07072",
        "otherCinemaCnt": 0,
        "ticketCinemaCnt": 3
    }, {
        "allCinemaCnt": 1,
        "cityId": 327,
        "cityName": "盘县",
        "cityPinYin": "panxian",
        "couponCinemaCnt": 0,
        "latitude": "25.70999",
        "longitude": "104.47153",
        "otherCinemaCnt": 0,
        "ticketCinemaCnt": 1
    }, {
        "allCinemaCnt": 1,
        "cityId": 1774,
        "cityName": "蓬溪县",
        "cityPinYin": "pengxixian",
        "couponCinemaCnt": 0,
        "latitude": "30.764037",
        "longitude": "105.714004",
        "otherCinemaCnt": 0,
        "ticketCinemaCnt": 1
    }, {
        "allCinemaCnt": 1,
        "cityId": 388,
        "cityName": "平顶山",
        "cityPinYin": "pingdingshan",
        "couponCinemaCnt": 0,
        "latitude": "33.76619",
        "longitude": "113.19282",
        "otherCinemaCnt": 0,
        "ticketCinemaCnt": 1
    }, {
        "allCinemaCnt": 6,
        "cityId": 1535,
        "cityName": "平凉",
        "cityPinYin": "pingliang",
        "couponCinemaCnt": 0,
        "latitude": "35.549266",
        "longitude": "106.671741",
        "otherCinemaCnt": 0,
        "ticketCinemaCnt": 6
    }, {
        "allCinemaCnt": 2,
        "cityId": 851,
        "cityName": "萍乡",
        "cityPinYin": "pingxiang",
        "couponCinemaCnt": 0,
        "latitude": "27.622866",
        "longitude": "113.854675",
        "otherCinemaCnt": 0,
        "ticketCinemaCnt": 2
    }, {
        "allCinemaCnt": 9,
        "cityId": 1244,
        "cityName": "莆田",
        "cityPinYin": "putian",
        "couponCinemaCnt": 0,
        "latitude": "25.454084",
        "longitude": "119.007774",
        "otherCinemaCnt": 0,
        "ticketCinemaCnt": 9
    }, {
        "allCinemaCnt": 2,
        "cityId": 147,
        "cityName": "濮阳",
        "cityPinYin": "puyang",
        "couponCinemaCnt": 0,
        "latitude": "35.762142",
        "longitude": "115.02933",
        "otherCinemaCnt": 0,
        "ticketCinemaCnt": 2
    }, {
        "allCinemaCnt": 3,
        "cityId": 254,
        "cityName": "普洱",
        "cityPinYin": "puer",
        "couponCinemaCnt": 0,
        "latitude": "22.777765",
        "longitude": "100.97015",
        "otherCinemaCnt": 0,
        "ticketCinemaCnt": 3
    }, {
        "allCinemaCnt": 1,
        "cityId": 2014,
        "cityName": "七台河",
        "cityPinYin": "qitaihe",
        "couponCinemaCnt": 0,
        "latitude": "45.776512",
        "longitude": "131.009618",
        "otherCinemaCnt": 0,
        "ticketCinemaCnt": 1
    }, {
        "allCinemaCnt": 3,
        "cityId": 280,
        "cityName": "齐齐哈尔",
        "cityPinYin": "qiqihaer",
        "couponCinemaCnt": 0,
        "latitude": "47.354347",
        "longitude": "123.91818",
        "otherCinemaCnt": 0,
        "ticketCinemaCnt": 3
    }, {
        "allCinemaCnt": 2,
        "cityId": 1522,
        "cityName": "潜江",
        "cityPinYin": "qianjiang",
        "couponCinemaCnt": 0,
        "latitude": "30.407633",
        "longitude": "112.905773",
        "otherCinemaCnt": 0,
        "ticketCinemaCnt": 2
    }, {
        "allCinemaCnt": 1,
        "cityId": 1934,
        "cityName": "黔东南苗族侗族自治州",
        "cityPinYin": "qiandongnanmiaozudongzuzizhizhou",
        "couponCinemaCnt": 0,
        "latitude": "26.590233",
        "longitude": "107.989455",
        "otherCinemaCnt": 0,
        "ticketCinemaCnt": 1
    }, {
        "allCinemaCnt": 1,
        "cityId": 2055,
        "cityName": "黔南布依族苗族自治州",
        "cityPinYin": "qiannanbuyizumiaozuzizhizhou",
        "couponCinemaCnt": 0,
        "latitude": "26.260586",
        "longitude": "107.528663",
        "otherCinemaCnt": 0,
        "ticketCinemaCnt": 1
    }, {
        "allCinemaCnt": 1,
        "cityId": 2062,
        "cityName": "黔西南布依族苗族自治州",
        "cityPinYin": "qianxinanbuyizumiaozuzizhizhou",
        "couponCinemaCnt": 0,
        "latitude": "25.095974",
        "longitude": "104.910858",
        "otherCinemaCnt": 0,
        "ticketCinemaCnt": 1
    }, {
        "allCinemaCnt": 3,
        "cityId": 1504,
        "cityName": "钦州",
        "cityPinYin": "qinzhou",
        "couponCinemaCnt": 0,
        "latitude": "21.985392",
        "longitude": "108.66089",
        "otherCinemaCnt": 0,
        "ticketCinemaCnt": 3
    }, {
        "allCinemaCnt": 3,
        "cityId": 978,
        "cityName": "秦皇岛",
        "cityPinYin": "qinhuangdao",
        "couponCinemaCnt": 0,
        "latitude": "39.935375",
        "longitude": "119.600494",
        "otherCinemaCnt": 0,
        "ticketCinemaCnt": 3
    }, {
        "allCinemaCnt": 24,
        "cityId": 69,
        "cityName": "青岛",
        "cityPinYin": "qingdao",
        "couponCinemaCnt": 0,
        "latitude": "36.06722",
        "longitude": "120.38251",
        "otherCinemaCnt": 0,
        "ticketCinemaCnt": 24
    }, {
        "allCinemaCnt": 5,
        "cityId": 729,
        "cityName": "清远",
        "cityPinYin": "qingyuan",
        "couponCinemaCnt": 0,
        "latitude": "23.681765",
        "longitude": "113.05603",
        "otherCinemaCnt": 0,
        "ticketCinemaCnt": 5
    }, {
        "allCinemaCnt": 3,
        "cityId": 1500,
        "cityName": "庆阳",
        "cityPinYin": "qingyang",
        "couponCinemaCnt": 0,
        "latitude": "35.715548",
        "longitude": "107.650695",
        "otherCinemaCnt": 0,
        "ticketCinemaCnt": 3
    }, {
        "allCinemaCnt": 1,
        "cityId": 311,
        "cityName": "琼海",
        "cityPinYin": "qionghaishi",
        "couponCinemaCnt": 0,
        "latitude": "19.258404",
        "longitude": "110.47465",
        "otherCinemaCnt": 0,
        "ticketCinemaCnt": 1
    }, {
        "allCinemaCnt": 6,
        "cityId": 268,
        "cityName": "曲靖",
        "cityPinYin": "qujin",
        "couponCinemaCnt": 0,
        "latitude": "25.49001",
        "longitude": "103.796165",
        "otherCinemaCnt": 0,
        "ticketCinemaCnt": 6
    }, {
        "allCinemaCnt": 8,
        "cityId": 1396,
        "cityName": "衢州",
        "cityPinYin": "quzhou",
        "couponCinemaCnt": 0,
        "latitude": "28.93581",
        "longitude": "118.874374",
        "otherCinemaCnt": 0,
        "ticketCinemaCnt": 8
    }, {
        "allCinemaCnt": 25,
        "cityId": 1235,
        "cityName": "泉州",
        "cityPinYin": "quanzhou",
        "couponCinemaCnt": 0,
        "latitude": "24.907574",
        "longitude": "118.586815",
        "otherCinemaCnt": 0,
        "ticketCinemaCnt": 25
    }, {
        "allCinemaCnt": 4,
        "cityId": 1011,
        "cityName": "日照",
        "cityPinYin": "rizhao",
        "couponCinemaCnt": 0,
        "latitude": "35.416378",
        "longitude": "119.526886",
        "otherCinemaCnt": 0,
        "ticketCinemaCnt": 4
    }, {
        "allCinemaCnt": 1,
        "cityId": 1567,
        "cityName": "荣成",
        "cityPinYin": "rongcheng",
        "couponCinemaCnt": 0,
        "latitude": "37.171153",
        "longitude": "122.492783",
        "otherCinemaCnt": 0,
        "ticketCinemaCnt": 1
    }, {
        "allCinemaCnt": 1,
        "cityId": 1514,
        "cityName": "三河",
        "cityPinYin": "sanhe",
        "couponCinemaCnt": 0,
        "latitude": "39.988263",
        "longitude": "117.084807",
        "otherCinemaCnt": 0,
        "ticketCinemaCnt": 1
    }, {
        "allCinemaCnt": 1,
        "cityId": 397,
        "cityName": "三门峡",
        "cityPinYin": "sanmenxia",
        "couponCinemaCnt": 0,
        "latitude": "34.772423",
        "longitude": "111.20023",
        "otherCinemaCnt": 0,
        "ticketCinemaCnt": 1
    }, {
        "allCinemaCnt": 9,
        "cityId": 1258,
        "cityName": "三明",
        "cityPinYin": "sanming",
        "couponCinemaCnt": 0,
        "latitude": "26.263407",
        "longitude": "117.63868",
        "otherCinemaCnt": 0,
        "ticketCinemaCnt": 9
    }, {
        "allCinemaCnt": 5,
        "cityId": 308,
        "cityName": "三亚",
        "cityPinYin": "sanya",
        "couponCinemaCnt": 0,
        "latitude": "18.252848",
        "longitude": "109.51191",
        "otherCinemaCnt": 0,
        "ticketCinemaCnt": 5
    }, {
        "allCinemaCnt": 11,
        "cityId": 754,
        "cityName": "汕头",
        "cityPinYin": "shantou",
        "couponCinemaCnt": 0,
        "latitude": "23.353298",
        "longitude": "116.68184",
        "otherCinemaCnt": 0,
        "ticketCinemaCnt": 11
    }, {
        "allCinemaCnt": 5,
        "cityId": 715,
        "cityName": "汕尾",
        "cityPinYin": "shanwei",
        "couponCinemaCnt": 0,
        "latitude": "22.786211",
        "longitude": "115.37528",
        "otherCinemaCnt": 0,
        "ticketCinemaCnt": 5
    }, {
        "allCinemaCnt": 1,
        "cityId": 823,
        "cityName": "商洛",
        "cityPinYin": "shangluo",
        "couponCinemaCnt": 0,
        "latitude": "33.870422",
        "longitude": "109.940475",
        "otherCinemaCnt": 0,
        "ticketCinemaCnt": 1
    }, {
        "allCinemaCnt": 8,
        "cityId": 361,
        "cityName": "商丘",
        "cityPinYin": "shangqiu",
        "couponCinemaCnt": 0,
        "latitude": "34.414173",
        "longitude": "115.65637",
        "otherCinemaCnt": 0,
        "ticketCinemaCnt": 8
    }, {
        "allCinemaCnt": 19,
        "cityId": 900,
        "cityName": "上饶",
        "cityPinYin": "shangraoshi",
        "couponCinemaCnt": 0,
        "latitude": "28.454863",
        "longitude": "117.943436",
        "otherCinemaCnt": 0,
        "ticketCinemaCnt": 19
    }, {
        "allCinemaCnt": 12,
        "cityId": 736,
        "cityName": "韶关",
        "cityPinYin": "shaoguan",
        "couponCinemaCnt": 0,
        "latitude": "24.810404",
        "longitude": "113.59752",
        "otherCinemaCnt": 0,
        "ticketCinemaCnt": 12
    }, {
        "allCinemaCnt": 11,
        "cityId": 524,
        "cityName": "邵阳",
        "cityPinYin": "shaoyang",
        "couponCinemaCnt": 0,
        "latitude": "27.238894",
        "longitude": "111.46779",
        "otherCinemaCnt": 0,
        "ticketCinemaCnt": 11
    }, {
        "allCinemaCnt": 10,
        "cityId": 1225,
        "cityName": "绍兴",
        "cityPinYin": "shaoxing",
        "couponCinemaCnt": 0,
        "latitude": "29.995762",
        "longitude": "120.586105",
        "otherCinemaCnt": 0,
        "ticketCinemaCnt": 10
    }, {
        "allCinemaCnt": 13,
        "cityId": 1203,
        "cityName": "十堰",
        "cityPinYin": "shiyan",
        "couponCinemaCnt": 0,
        "latitude": "32.6294",
        "longitude": "110.79799",
        "otherCinemaCnt": 0,
        "ticketCinemaCnt": 13
    }, {
        "allCinemaCnt": 29,
        "cityId": 790,
        "cityName": "石家庄",
        "cityPinYin": "shijiazhuang",
        "couponCinemaCnt": 0,
        "latitude": "38.04231",
        "longitude": "114.51486",
        "otherCinemaCnt": 0,
        "ticketCinemaCnt": 29
    }, {
        "allCinemaCnt": 2,
        "cityId": 227,
        "cityName": "石嘴山",
        "cityPinYin": "shizuishan",
        "couponCinemaCnt": 0,
        "latitude": "38.984344",
        "longitude": "106.38305",
        "otherCinemaCnt": 0,
        "ticketCinemaCnt": 2
    }, {
        "allCinemaCnt": 1,
        "cityId": 1749,
        "cityName": "双鸭山",
        "cityPinYin": "shuangyashan",
        "couponCinemaCnt": 0,
        "latitude": "46.652966",
        "longitude": "131.165442",
        "otherCinemaCnt": 0,
        "ticketCinemaCnt": 1
    }, {
        "allCinemaCnt": 1,
        "cityId": 1078,
        "cityName": "朔州",
        "cityPinYin": "shuozhou",
        "couponCinemaCnt": 0,
        "latitude": "39.331596",
        "longitude": "112.43282",
        "otherCinemaCnt": 0,
        "ticketCinemaCnt": 1
    }, {
        "allCinemaCnt": 1,
        "cityId": 448,
        "cityName": "四平",
        "cityPinYin": "siping",
        "couponCinemaCnt": 0,
        "latitude": "43.16642",
        "longitude": "124.350395",
        "otherCinemaCnt": 0,
        "ticketCinemaCnt": 1
    }, {
        "allCinemaCnt": 3,
        "cityId": 456,
        "cityName": "松原",
        "cityPinYin": "songyuanshi",
        "couponCinemaCnt": 0,
        "latitude": "45.14179",
        "longitude": "124.82512",
        "otherCinemaCnt": 0,
        "ticketCinemaCnt": 3
    }, {
        "allCinemaCnt": 50,
        "cityId": 1246,
        "cityName": "苏州",
        "cityPinYin": "suzhou",
        "couponCinemaCnt": 0,
        "latitude": "31.304566",
        "longitude": "120.589613",
        "otherCinemaCnt": 0,
        "ticketCinemaCnt": 51
    }, {
        "allCinemaCnt": 10,
        "cityId": 1255,
        "cityName": "宿迁",
        "cityPinYin": "suqian",
        "couponCinemaCnt": 0,
        "latitude": "33.961994",
        "longitude": "118.2755",
        "otherCinemaCnt": 0,
        "ticketCinemaCnt": 10
    }, {
        "allCinemaCnt": 4,
        "cityId": 1207,
        "cityName": "宿州",
        "cityPinYin": "suzhou1207",
        "couponCinemaCnt": 0,
        "latitude": "33.639393",
        "longitude": "116.9853",
        "otherCinemaCnt": 0,
        "ticketCinemaCnt": 4
    }, {
        "allCinemaCnt": 1,
        "cityId": 305,
        "cityName": "绥化",
        "cityPinYin": "suihuashi",
        "couponCinemaCnt": 0,
        "latitude": "46.63663",
        "longitude": "126.98",
        "otherCinemaCnt": 0,
        "ticketCinemaCnt": 1
    }, {
        "allCinemaCnt": 6,
        "cityId": 231,
        "cityName": "随州",
        "cityPinYin": "suizhou",
        "couponCinemaCnt": 0,
        "latitude": "31.690216",
        "longitude": "113.38246",
        "otherCinemaCnt": 0,
        "ticketCinemaCnt": 6
    }, {
        "allCinemaCnt": 7,
        "cityId": 744,
        "cityName": "遂宁",
        "cityPinYin": "suining",
        "couponCinemaCnt": 0,
        "latitude": "30.532846",
        "longitude": "105.592896",
        "otherCinemaCnt": 0,
        "ticketCinemaCnt": 7
    }, {
        "allCinemaCnt": 2,
        "cityId": 377,
        "cityName": "台山",
        "cityPinYin": "taishan",
        "couponCinemaCnt": 0,
        "latitude": "22.251925",
        "longitude": "112.79407",
        "otherCinemaCnt": 0,
        "ticketCinemaCnt": 2
    }, {
        "allCinemaCnt": 24,
        "cityId": 1256,
        "cityName": "台州",
        "cityPinYin": "taizhou",
        "couponCinemaCnt": 0,
        "latitude": "28.656385",
        "longitude": "121.42075",
        "otherCinemaCnt": 0,
        "ticketCinemaCnt": 24
    }, {
        "allCinemaCnt": 15,
        "cityId": 82,
        "cityName": "太原",
        "cityPinYin": "taiyuan",
        "couponCinemaCnt": 0,
        "latitude": "37.870663",
        "longitude": "112.55062",
        "otherCinemaCnt": 0,
        "ticketCinemaCnt": 15
    }, {
        "allCinemaCnt": 5,
        "cityId": 828,
        "cityName": "泰安",
        "cityPinYin": "taian",
        "couponCinemaCnt": 0,
        "latitude": "36.200253",
        "longitude": "117.087616",
        "otherCinemaCnt": 0,
        "ticketCinemaCnt": 5
    }, {
        "allCinemaCnt": 9,
        "cityId": 1254,
        "cityName": "泰州",
        "cityPinYin": "taizhou16",
        "couponCinemaCnt": 0,
        "latitude": "32.455776",
        "longitude": "119.92312",
        "otherCinemaCnt": 0,
        "ticketCinemaCnt": 9
    }, {
        "allCinemaCnt": 11,
        "cityId": 971,
        "cityName": "唐山",
        "cityPinYin": "tangshan",
        "couponCinemaCnt": 0,
        "latitude": "39.630478",
        "longitude": "118.180405",
        "otherCinemaCnt": 0,
        "ticketCinemaCnt": 11
    }, {
        "allCinemaCnt": 2,
        "cityId": 1648,
        "cityName": "天门",
        "cityPinYin": "tianmen",
        "couponCinemaCnt": 0,
        "latitude": "41.078844",
        "longitude": "124.648432",
        "otherCinemaCnt": 0,
        "ticketCinemaCnt": 2
    }, {
        "allCinemaCnt": 4,
        "cityId": 216,
        "cityName": "天水",
        "cityPinYin": "tianshui",
        "couponCinemaCnt": 0,
        "latitude": "34.58086",
        "longitude": "105.724945",
        "otherCinemaCnt": 0,
        "ticketCinemaCnt": 4
    }, {
        "allCinemaCnt": 5,
        "cityId": 445,
        "cityName": "铁岭",
        "cityPinYin": "tieling",
        "couponCinemaCnt": 0,
        "latitude": "42.22297",
        "longitude": "123.726166",
        "otherCinemaCnt": 0,
        "ticketCinemaCnt": 5
    }, {
        "allCinemaCnt": 3,
        "cityId": 436,
        "cityName": "通化",
        "cityPinYin": "tonghua",
        "couponCinemaCnt": 0,
        "latitude": "41.7284",
        "longitude": "125.9397",
        "otherCinemaCnt": 0,
        "ticketCinemaCnt": 3
    }, {
        "allCinemaCnt": 2,
        "cityId": 975,
        "cityName": "通辽",
        "cityPinYin": "tongliao",
        "couponCinemaCnt": 0,
        "latitude": "43.61944",
        "longitude": "122.26574",
        "otherCinemaCnt": 0,
        "ticketCinemaCnt": 2
    }, {
        "allCinemaCnt": 1,
        "cityId": 1712,
        "cityName": "铜川市",
        "cityPinYin": "tongchuanshi",
        "couponCinemaCnt": 0,
        "latitude": "34.902957",
        "longitude": "108.951558",
        "otherCinemaCnt": 0,
        "ticketCinemaCnt": 1
    }, {
        "allCinemaCnt": 3,
        "cityId": 1162,
        "cityName": "铜陵",
        "cityPinYin": "tongling",
        "couponCinemaCnt": 0,
        "latitude": "30.94453",
        "longitude": "117.810844",
        "otherCinemaCnt": 0,
        "ticketCinemaCnt": 3
    }, {
        "allCinemaCnt": 3,
        "cityId": 432,
        "cityName": "铜仁",
        "cityPinYin": "tongren",
        "couponCinemaCnt": 0,
        "latitude": "27.731516",
        "longitude": "109.1896",
        "otherCinemaCnt": 0,
        "ticketCinemaCnt": 3
    }, {
        "allCinemaCnt": 1,
        "cityId": 1949,
        "cityName": "屯昌",
        "cityPinYin": "tunchang",
        "couponCinemaCnt": 0,
        "latitude": "19.357499",
        "longitude": "110.110047",
        "otherCinemaCnt": 0,
        "ticketCinemaCnt": 1
    }, {
        "allCinemaCnt": 6,
        "cityId": 1008,
        "cityName": "威海",
        "cityPinYin": "weihai",
        "couponCinemaCnt": 0,
        "latitude": "37.51307",
        "longitude": "122.12042",
        "otherCinemaCnt": 0,
        "ticketCinemaCnt": 6
    }, {
        "allCinemaCnt": 16,
        "cityId": 70,
        "cityName": "潍坊",
        "cityPinYin": "weifang",
        "couponCinemaCnt": 0,
        "latitude": "36.70669",
        "longitude": "119.16193",
        "otherCinemaCnt": 0,
        "ticketCinemaCnt": 16
    }, {
        "allCinemaCnt": 2,
        "cityId": 842,
        "cityName": "渭南",
        "cityPinYin": "weinan",
        "couponCinemaCnt": 0,
        "latitude": "34.499996",
        "longitude": "109.50979",
        "otherCinemaCnt": 0,
        "ticketCinemaCnt": 3
    }, {
        "allCinemaCnt": 24,
        "cityId": 1307,
        "cityName": "温州",
        "cityPinYin": "wenzhou",
        "couponCinemaCnt": 0,
        "latitude": "27.994267",
        "longitude": "120.69936",
        "otherCinemaCnt": 0,
        "ticketCinemaCnt": 24
    }, {
        "allCinemaCnt": 4,
        "cityId": 1532,
        "cityName": "文山",
        "cityPinYin": "wenshan",
        "couponCinemaCnt": 0,
        "latitude": "23.404187",
        "longitude": "104.221606",
        "otherCinemaCnt": 0,
        "ticketCinemaCnt": 4
    }, {
        "allCinemaCnt": 1,
        "cityId": 1717,
        "cityName": "乌兰察布",
        "cityPinYin": "wulanchabu",
        "couponCinemaCnt": 0,
        "latitude": "40.999972",
        "longitude": "113.140223",
        "otherCinemaCnt": 0,
        "ticketCinemaCnt": 1
    }, {
        "allCinemaCnt": 6,
        "cityId": 141,
        "cityName": "乌鲁木齐",
        "cityPinYin": "wulumuqi",
        "couponCinemaCnt": 0,
        "latitude": "43.825645",
        "longitude": "87.61682",
        "otherCinemaCnt": 0,
        "ticketCinemaCnt": 6
    }, {
        "allCinemaCnt": 37,
        "cityId": 1237,
        "cityName": "无锡",
        "cityPinYin": "wuxi",
        "couponCinemaCnt": 0,
        "latitude": "31.566145",
        "longitude": "120.303024",
        "otherCinemaCnt": 0,
        "ticketCinemaCnt": 38
    }, {
        "allCinemaCnt": 7,
        "cityId": 1144,
        "cityName": "芜湖",
        "cityPinYin": "wuhu",
        "couponCinemaCnt": 0,
        "latitude": "31.35286",
        "longitude": "118.43294",
        "otherCinemaCnt": 0,
        "ticketCinemaCnt": 7
    }, {
        "allCinemaCnt": 7,
        "cityId": 430,
        "cityName": "梧州",
        "cityPinYin": "wuzhou",
        "couponCinemaCnt": 0,
        "latitude": "23.47691",
        "longitude": "111.27917",
        "otherCinemaCnt": 0,
        "ticketCinemaCnt": 7
    }, {
        "allCinemaCnt": 1,
        "cityId": 198,
        "cityName": "武威",
        "cityPinYin": "wuwei",
        "couponCinemaCnt": 0,
        "latitude": "37.928337",
        "longitude": "102.63801",
        "otherCinemaCnt": 0,
        "ticketCinemaCnt": 1
    }, {
        "allCinemaCnt": 6,
        "cityId": 200,
        "cityName": "西宁",
        "cityPinYin": "xining",
        "couponCinemaCnt": 0,
        "latitude": "36.617146",
        "longitude": "101.77823",
        "otherCinemaCnt": 0,
        "ticketCinemaCnt": 6
    }, {
        "allCinemaCnt": 1,
        "cityId": 1483,
        "cityName": "锡林郭勒",
        "cityPinYin": "xilinguole",
        "couponCinemaCnt": 0,
        "latitude": "43.939525",
        "longitude": "116.054141",
        "otherCinemaCnt": 0,
        "ticketCinemaCnt": 1
    }, {
        "allCinemaCnt": 21,
        "cityId": 115,
        "cityName": "厦门",
        "cityPinYin": "xiamen",
        "couponCinemaCnt": 0,
        "latitude": "24.479836",
        "longitude": "118.08942",
        "otherCinemaCnt": 0,
        "ticketCinemaCnt": 21
    }, {
        "allCinemaCnt": 4,
        "cityId": 1229,
        "cityName": "仙桃",
        "cityPinYin": "xiantao",
        "couponCinemaCnt": 0,
        "latitude": "30.36264",
        "longitude": "113.45459",
        "otherCinemaCnt": 0,
        "ticketCinemaCnt": 4
    }, {
        "allCinemaCnt": 9,
        "cityId": 229,
        "cityName": "咸宁",
        "cityPinYin": "xianning",
        "couponCinemaCnt": 0,
        "latitude": "29.841442",
        "longitude": "114.322495",
        "otherCinemaCnt": 0,
        "ticketCinemaCnt": 9
    }, {
        "allCinemaCnt": 3,
        "cityId": 805,
        "cityName": "咸阳",
        "cityPinYin": "xianyang",
        "couponCinemaCnt": 0,
        "latitude": "34.329563",
        "longitude": "108.709",
        "otherCinemaCnt": 0,
        "ticketCinemaCnt": 3
    }, {
        "allCinemaCnt": 13,
        "cityId": 520,
        "cityName": "湘潭",
        "cityPinYin": "xiangtan",
        "couponCinemaCnt": 0,
        "latitude": "27.829739",
        "longitude": "112.944046",
        "otherCinemaCnt": 0,
        "ticketCinemaCnt": 13
    }, {
        "allCinemaCnt": 3,
        "cityId": 533,
        "cityName": "湘西自治州",
        "cityPinYin": "xiangxizizhizhou",
        "couponCinemaCnt": 0,
        "latitude": "28.311949",
        "longitude": "109.739174",
        "otherCinemaCnt": 0,
        "ticketCinemaCnt": 3
    }, {
        "allCinemaCnt": 11,
        "cityId": 1213,
        "cityName": "襄阳",
        "cityPinYin": "xiangfan",
        "couponCinemaCnt": 0,
        "latitude": "32.008987",
        "longitude": "112.12241",
        "otherCinemaCnt": 0,
        "ticketCinemaCnt": 11
    }, {
        "allCinemaCnt": 5,
        "cityId": 233,
        "cityName": "孝感",
        "cityPinYin": "xiaogan",
        "couponCinemaCnt": 0,
        "latitude": "30.924568",
        "longitude": "113.9169",
        "otherCinemaCnt": 0,
        "ticketCinemaCnt": 5
    }, {
        "allCinemaCnt": 1,
        "cityId": 1130,
        "cityName": "忻州",
        "cityPinYin": "xinzhou",
        "couponCinemaCnt": 0,
        "latitude": "38.416664",
        "longitude": "112.73418",
        "otherCinemaCnt": 0,
        "ticketCinemaCnt": 1
    }, {
        "allCinemaCnt": 10,
        "cityId": 177,
        "cityName": "新乡",
        "cityPinYin": "xinxiang",
        "couponCinemaCnt": 0,
        "latitude": "35.303005",
        "longitude": "113.9268",
        "otherCinemaCnt": 0,
        "ticketCinemaCnt": 11
    }, {
        "allCinemaCnt": 5,
        "cityId": 858,
        "cityName": "新余",
        "cityPinYin": "xinyu",
        "couponCinemaCnt": 0,
        "latitude": "27.81782",
        "longitude": "114.91741",
        "otherCinemaCnt": 0,
        "ticketCinemaCnt": 5
    }, {
        "allCinemaCnt": 4,
        "cityId": 410,
        "cityName": "信阳",
        "cityPinYin": "xinyang",
        "couponCinemaCnt": 0,
        "latitude": "32.147015",
        "longitude": "114.091286",
        "otherCinemaCnt": 0,
        "ticketCinemaCnt": 4
    }, {
        "allCinemaCnt": 2,
        "cityId": 331,
        "cityName": "兴义",
        "cityPinYin": "xingyi",
        "couponCinemaCnt": 0,
        "latitude": "25.092052",
        "longitude": "104.89549",
        "otherCinemaCnt": 0,
        "ticketCinemaCnt": 2
    }, {
        "allCinemaCnt": 2,
        "cityId": 817,
        "cityName": "邢台",
        "cityPinYin": "xingtai",
        "couponCinemaCnt": 0,
        "latitude": "37.070587",
        "longitude": "114.504845",
        "otherCinemaCnt": 0,
        "ticketCinemaCnt": 2
    }, {
        "allCinemaCnt": 14,
        "cityId": 1195,
        "cityName": "徐州",
        "cityPinYin": "xuzhou",
        "couponCinemaCnt": 0,
        "latitude": "34.20475",
        "longitude": "117.284065",
        "otherCinemaCnt": 0,
        "ticketCinemaCnt": 14
    }, {
        "allCinemaCnt": 4,
        "cityId": 367,
        "cityName": "许昌",
        "cityPinYin": "xuchang",
        "couponCinemaCnt": 0,
        "latitude": "34.035507",
        "longitude": "113.85264",
        "otherCinemaCnt": 0,
        "ticketCinemaCnt": 4
    }, {
        "allCinemaCnt": 4,
        "cityId": 1154,
        "cityName": "宣城",
        "cityPinYin": "xuancheng",
        "couponCinemaCnt": 0,
        "latitude": "30.940718",
        "longitude": "118.75882",
        "otherCinemaCnt": 0,
        "ticketCinemaCnt": 4
    }, {
        "allCinemaCnt": 1,
        "cityId": 1611,
        "cityName": "雅安",
        "cityPinYin": "yaan",
        "couponCinemaCnt": 0,
        "latitude": "30.021277",
        "longitude": "103.04636",
        "otherCinemaCnt": 0,
        "ticketCinemaCnt": 1
    }, {
        "allCinemaCnt": 8,
        "cityId": 996,
        "cityName": "烟台",
        "cityPinYin": "yantai",
        "couponCinemaCnt": 0,
        "latitude": "37.463818",
        "longitude": "121.44793",
        "otherCinemaCnt": 0,
        "ticketCinemaCnt": 8
    }, {
        "allCinemaCnt": 4,
        "cityId": 847,
        "cityName": "延安",
        "cityPinYin": "yanan",
        "couponCinemaCnt": 0,
        "latitude": "36.585423",
        "longitude": "109.48963",
        "otherCinemaCnt": 0,
        "ticketCinemaCnt": 4
    }, {
        "allCinemaCnt": 4,
        "cityId": 439,
        "cityName": "延边自治区",
        "cityPinYin": "yanbian",
        "couponCinemaCnt": 0,
        "latitude": "42.891254",
        "longitude": "129.50894",
        "otherCinemaCnt": 0,
        "ticketCinemaCnt": 4
    }, {
        "allCinemaCnt": 20,
        "cityId": 1250,
        "cityName": "盐城",
        "cityPinYin": "yancheng",
        "couponCinemaCnt": 0,
        "latitude": "33.347378",
        "longitude": "120.16356",
        "otherCinemaCnt": 0,
        "ticketCinemaCnt": 20
    }, {
        "allCinemaCnt": 18,
        "cityId": 1251,
        "cityName": "扬州",
        "cityPinYin": "yangzhou",
        "couponCinemaCnt": 0,
        "latitude": "32.39421",
        "longitude": "119.412964",
        "otherCinemaCnt": 0,
        "ticketCinemaCnt": 18
    }, {
        "allCinemaCnt": 11,
        "cityId": 348,
        "cityName": "阳江",
        "cityPinYin": "yangjiangshi",
        "couponCinemaCnt": 0,
        "latitude": "21.857958",
        "longitude": "111.98223",
        "otherCinemaCnt": 0,
        "ticketCinemaCnt": 11
    }, {
        "allCinemaCnt": 3,
        "cityId": 1039,
        "cityName": "阳泉",
        "cityPinYin": "yangquan",
        "couponCinemaCnt": 0,
        "latitude": "37.85666",
        "longitude": "113.580414",
        "otherCinemaCnt": 0,
        "ticketCinemaCnt": 3
    }, {
        "allCinemaCnt": 1,
        "cityId": 1575,
        "cityName": "伊春",
        "cityPinYin": "yichun1575",
        "couponCinemaCnt": 0,
        "latitude": "47.733329",
        "longitude": "128.84704",
        "otherCinemaCnt": 0,
        "ticketCinemaCnt": 1
    }, {
        "allCinemaCnt": 7,
        "cityId": 768,
        "cityName": "宜宾",
        "cityPinYin": "yibin",
        "couponCinemaCnt": 0,
        "latitude": "28.751812",
        "longitude": "104.64338",
        "otherCinemaCnt": 0,
        "ticketCinemaCnt": 7
    }, {
        "allCinemaCnt": 7,
        "cityId": 1219,
        "cityName": "宜昌",
        "cityPinYin": "yichang",
        "couponCinemaCnt": 0,
        "latitude": "30.691967",
        "longitude": "111.28647",
        "otherCinemaCnt": 0,
        "ticketCinemaCnt": 7
    }, {
        "allCinemaCnt": 6,
        "cityId": 889,
        "cityName": "宜春",
        "cityPinYin": "yichun",
        "couponCinemaCnt": 0,
        "latitude": "27.815619",
        "longitude": "114.41678",
        "otherCinemaCnt": 0,
        "ticketCinemaCnt": 6
    }, {
        "allCinemaCnt": 1,
        "cityId": 1896,
        "cityName": "宜都",
        "cityPinYin": "yidu",
        "couponCinemaCnt": 0,
        "latitude": "30.384466",
        "longitude": "111.456615",
        "otherCinemaCnt": 0,
        "ticketCinemaCnt": 1
    }, {
        "allCinemaCnt": 5,
        "cityId": 528,
        "cityName": "益阳",
        "cityPinYin": "yiyang",
        "couponCinemaCnt": 0,
        "latitude": "28.55386",
        "longitude": "112.35518",
        "otherCinemaCnt": 0,
        "ticketCinemaCnt": 5
    }, {
        "allCinemaCnt": 4,
        "cityId": 222,
        "cityName": "银川",
        "cityPinYin": "yinchuan",
        "couponCinemaCnt": 0,
        "latitude": "38.487194",
        "longitude": "106.23091",
        "otherCinemaCnt": 0,
        "ticketCinemaCnt": 4
    }, {
        "allCinemaCnt": 5,
        "cityId": 862,
        "cityName": "鹰潭",
        "cityPinYin": "yingtan",
        "couponCinemaCnt": 0,
        "latitude": "28.26019",
        "longitude": "117.0692",
        "otherCinemaCnt": 0,
        "ticketCinemaCnt": 5
    }, {
        "allCinemaCnt": 3,
        "cityId": 499,
        "cityName": "营口",
        "cityPinYin": "yingkou",
        "couponCinemaCnt": 0,
        "latitude": "40.66701",
        "longitude": "122.23542",
        "otherCinemaCnt": 0,
        "ticketCinemaCnt": 3
    }, {
        "allCinemaCnt": 7,
        "cityId": 530,
        "cityName": "永州",
        "cityPinYin": "yongzhou",
        "couponCinemaCnt": 0,
        "latitude": "26.420395",
        "longitude": "111.61344",
        "otherCinemaCnt": 0,
        "ticketCinemaCnt": 7
    }, {
        "allCinemaCnt": 5,
        "cityId": 911,
        "cityName": "榆林",
        "cityPinYin": "yulin911",
        "couponCinemaCnt": 0,
        "latitude": "38.285343",
        "longitude": "109.73456",
        "otherCinemaCnt": 0,
        "ticketCinemaCnt": 5
    }, {
        "allCinemaCnt": 5,
        "cityId": 426,
        "cityName": "玉林",
        "cityPinYin": "yulin",
        "couponCinemaCnt": 0,
        "latitude": "22.63638",
        "longitude": "110.16476",
        "otherCinemaCnt": 0,
        "ticketCinemaCnt": 5
    }, {
        "allCinemaCnt": 4,
        "cityId": 270,
        "cityName": "玉溪",
        "cityPinYin": "yuxi",
        "couponCinemaCnt": 0,
        "latitude": "24.352036",
        "longitude": "102.54654",
        "otherCinemaCnt": 0,
        "ticketCinemaCnt": 4
    }, {
        "allCinemaCnt": 7,
        "cityId": 525,
        "cityName": "岳阳",
        "cityPinYin": "yueyang",
        "couponCinemaCnt": 0,
        "latitude": "29.357103",
        "longitude": "113.12896",
        "otherCinemaCnt": 0,
        "ticketCinemaCnt": 7
    }, {
        "allCinemaCnt": 1,
        "cityId": 442,
        "cityName": "云浮",
        "cityPinYin": "yunfu",
        "couponCinemaCnt": 0,
        "latitude": "22.915094",
        "longitude": "112.044495",
        "otherCinemaCnt": 0,
        "ticketCinemaCnt": 1
    }, {
        "allCinemaCnt": 5,
        "cityId": 1116,
        "cityName": "运城",
        "cityPinYin": "yuncheng",
        "couponCinemaCnt": 0,
        "latitude": "35.02637",
        "longitude": "111.007324",
        "otherCinemaCnt": 0,
        "ticketCinemaCnt": 5
    }, {
        "allCinemaCnt": 1,
        "cityId": 1791,
        "cityName": "枣阳",
        "cityPinYin": "zaoyang",
        "couponCinemaCnt": 0,
        "latitude": "32.134425",
        "longitude": "112.780441",
        "otherCinemaCnt": 0,
        "ticketCinemaCnt": 1
    }, {
        "allCinemaCnt": 15,
        "cityId": 320,
        "cityName": "湛江",
        "cityPinYin": "zhanjiang",
        "couponCinemaCnt": 0,
        "latitude": "21.270702",
        "longitude": "110.35939",
        "otherCinemaCnt": 0,
        "ticketCinemaCnt": 15
    }, {
        "allCinemaCnt": 2,
        "cityId": 527,
        "cityName": "张家界",
        "cityPinYin": "zhangjiajie",
        "couponCinemaCnt": 0,
        "latitude": "29.117096",
        "longitude": "110.479195",
        "otherCinemaCnt": 0,
        "ticketCinemaCnt": 2
    }, {
        "allCinemaCnt": 7,
        "cityId": 982,
        "cityName": "张家口",
        "cityPinYin": "zhangjiakou",
        "couponCinemaCnt": 0,
        "latitude": "40.824417",
        "longitude": "114.88754",
        "otherCinemaCnt": 0,
        "ticketCinemaCnt": 7
    }, {
        "allCinemaCnt": 2,
        "cityId": 196,
        "cityName": "张掖",
        "cityPinYin": "zhangye",
        "couponCinemaCnt": 0,
        "latitude": "38.925648",
        "longitude": "100.44982",
        "otherCinemaCnt": 0,
        "ticketCinemaCnt": 2
    }, {
        "allCinemaCnt": 10,
        "cityId": 860,
        "cityName": "漳州",
        "cityPinYin": "zhangzhou",
        "couponCinemaCnt": 0,
        "latitude": "24.512949",
        "longitude": "117.647484",
        "otherCinemaCnt": 0,
        "ticketCinemaCnt": 10
    }, {
        "allCinemaCnt": 11,
        "cityId": 446,
        "cityName": "肇庆",
        "cityPinYin": "zhaoqing",
        "couponCinemaCnt": 0,
        "latitude": "23.047192",
        "longitude": "112.46509",
        "otherCinemaCnt": 0,
        "ticketCinemaCnt": 11
    }, {
        "allCinemaCnt": 12,
        "cityId": 1253,
        "cityName": "镇江",
        "cityPinYin": "zhengjiang",
        "couponCinemaCnt": 0,
        "latitude": "32.199146",
        "longitude": "119.45722",
        "otherCinemaCnt": 0,
        "ticketCinemaCnt": 12
    }, {
        "allCinemaCnt": 34,
        "cityId": 99,
        "cityName": "郑州",
        "cityPinYin": "zhengzhou",
        "couponCinemaCnt": 0,
        "latitude": "34.7466",
        "longitude": "113.62537",
        "otherCinemaCnt": 0,
        "ticketCinemaCnt": 34
    }, {
        "allCinemaCnt": 25,
        "cityId": 262,
        "cityName": "中山",
        "cityPinYin": "zhongshan",
        "couponCinemaCnt": 0,
        "latitude": "22.516685",
        "longitude": "113.39279",
        "otherCinemaCnt": 0,
        "ticketCinemaCnt": 25
    }, {
        "allCinemaCnt": 1,
        "cityId": 220,
        "cityName": "中卫",
        "cityPinYin": "zhongwei",
        "couponCinemaCnt": 0,
        "latitude": "37.51689",
        "longitude": "105.173836",
        "otherCinemaCnt": 0,
        "ticketCinemaCnt": 1
    }, {
        "allCinemaCnt": 5,
        "cityId": 1392,
        "cityName": "舟山",
        "cityPinYin": "zhoushan",
        "couponCinemaCnt": 0,
        "latitude": "29.98545",
        "longitude": "122.206604",
        "otherCinemaCnt": 0,
        "ticketCinemaCnt": 5
    }, {
        "allCinemaCnt": 1,
        "cityId": 382,
        "cityName": "周口",
        "cityPinYin": "zhoukou",
        "couponCinemaCnt": 0,
        "latitude": "33.618687",
        "longitude": "114.657616",
        "otherCinemaCnt": 0,
        "ticketCinemaCnt": 1
    }, {
        "allCinemaCnt": 10,
        "cityId": 519,
        "cityName": "株洲",
        "cityPinYin": "zhuzhou",
        "couponCinemaCnt": 0,
        "latitude": "27.827827",
        "longitude": "113.13377",
        "otherCinemaCnt": 0,
        "ticketCinemaCnt": 10
    }, {
        "allCinemaCnt": 15,
        "cityId": 257,
        "cityName": "珠海",
        "cityPinYin": "zhuhai",
        "couponCinemaCnt": 0,
        "latitude": "22.270716",
        "longitude": "113.57673",
        "otherCinemaCnt": 0,
        "ticketCinemaCnt": 15
    }, {
        "allCinemaCnt": 1,
        "cityId": 1660,
        "cityName": "诸暨",
        "cityPinYin": "ZHUJI",
        "couponCinemaCnt": 0,
        "latitude": "29.719991",
        "longitude": "120.24272",
        "otherCinemaCnt": 0,
        "ticketCinemaCnt": 1
    }, {
        "allCinemaCnt": 2,
        "cityId": 405,
        "cityName": "驻马店",
        "cityPinYin": "zhumadian",
        "couponCinemaCnt": 0,
        "latitude": "33.011528",
        "longitude": "114.0223",
        "otherCinemaCnt": 0,
        "ticketCinemaCnt": 2
    }, {
        "allCinemaCnt": 2,
        "cityId": 570,
        "cityName": "资阳",
        "cityPinYin": "ziyang",
        "couponCinemaCnt": 0,
        "latitude": "30.1289",
        "longitude": "104.62764",
        "otherCinemaCnt": 0,
        "ticketCinemaCnt": 2
    }, {
        "allCinemaCnt": 14,
        "cityId": 931,
        "cityName": "淄博",
        "cityPinYin": "zibo",
        "couponCinemaCnt": 0,
        "latitude": "36.813496",
        "longitude": "118.05501",
        "otherCinemaCnt": 0,
        "ticketCinemaCnt": 14
    }, {
        "allCinemaCnt": 4,
        "cityId": 752,
        "cityName": "自贡",
        "cityPinYin": "zigong",
        "couponCinemaCnt": 0,
        "latitude": "29.33903",
        "longitude": "104.77844",
        "otherCinemaCnt": 0,
        "ticketCinemaCnt": 4
    }, {
        "allCinemaCnt": 1,
        "cityId": 1081,
        "cityName": "邹城",
        "cityPinYin": "zoucheng",
        "couponCinemaCnt": 0,
        "latitude": "35.405186",
        "longitude": "117.003746",
        "otherCinemaCnt": 0,
        "ticketCinemaCnt": 1
    }, {
        "allCinemaCnt": 4,
        "cityId": 343,
        "cityName": "遵义",
        "cityPinYin": "zunyi",
        "couponCinemaCnt": 0,
        "latitude": "27.725655",
        "longitude": "106.92739",
        "otherCinemaCnt": 0,
        "ticketCinemaCnt": 4
    }],
    "status": 0,
    "timestamp": 1474611928334,
    "total": 322
}
